{
    "type": "FeatureCollection",
    "crs": {
      "type": "name",
      "properties": { "name": "urn:ogc:def:crs:OGC:1.3:CRS84" }
    },
    "features":
[
    {
      "NAME": "ウエルシア薬局足立加賀店",
      "DISTRICT": "足立区",
      "ADDRESS": "東京都足立区加賀２－１０－１",
      "HOURS": "月～土　9:00～20:00",
      "PCR": "○",
      "ANTIBODY": "○",
      "LOCATION": "35.78950804169676, 139.75745676883537"
    },
    {
      "NAME": "ウエルシア薬局足立加平店",
      "DISTRICT": "足立区",
      "ADDRESS": "東京都足立区加平３－４－１６",
      "HOURS": " 月～土　9:00～20:00\n 日祝       9:00～13:00 14:00～17:00",
      "PCR": "○",
      "ANTIBODY": "○",
      "LOCATION": "35.778805862196435, 139.82866912650545"
    },
    {
      "NAME": "ウエルシア薬局足立弘道店",
      "DISTRICT": "足立区",
      "ADDRESS": "東京都足立区弘道２－１８－７",
      "HOURS": "月～土　10:00～14:00 15:00～19:00",
      "PCR": "○",
      "ANTIBODY": "○",
      "LOCATION": "35.76975300243201, 139.8175554706813"
    },
    {
      "NAME": "ウエルシア薬局足立江北店",
      "DISTRICT": "足立区",
      "ADDRESS": "東京都足立区江北１－７－１５",
      "HOURS": "月～日祝　9:00～20:00\n無休",
      "PCR": "○",
      "ANTIBODY": "○",
      "LOCATION": "35.76881253095615, 139.7670334265052"
    },
    {
      "NAME": "ウエルシア薬局足立新田店",
      "DISTRICT": "足立区",
      "ADDRESS": "東京都足立区新田２－５－１",
      "HOURS": "月～土　9:00～13:00 14:00～19:00",
      "PCR": "○",
      "ANTIBODY": "○",
      "LOCATION": "35.77190548367203, 139.74059648232944"
    },
    {
      "NAME": "ウエルシア薬局足立西新井店",
      "DISTRICT": "足立区",
      "ADDRESS": "東京都足立区西新井４－３２－１４",
      "HOURS": "\n月～土　9:00～19:00\n日　       9:00～13:00",
      "PCR": "○",
      "ANTIBODY": "○",
      "LOCATION": "35.788582022562196, 139.77889185534082"
    },
    {
      "NAME": "ウエルシア薬局足立青井店",
      "DISTRICT": "足立区",
      "ADDRESS": "東京都足立区青井２－２０－１４",
      "HOURS": "月～土　9:00～19:00\n12/30　9:00~17:00",
      "PCR": "○",
      "ANTIBODY": "○",
      "LOCATION": "35.77213753810371, 139.81613146883487"
    },
    {
      "NAME": "ウエルシア薬局足立竹の塚１丁目店",
      "DISTRICT": "足立区",
      "ADDRESS": "東京都足立区竹ノ塚１－１３－１０",
      "HOURS": "月～土　10:00～20:00",
      "PCR": "○",
      "ANTIBODY": "○",
      "LOCATION": "35.79112253245974, 139.7924726265058"
    },
    {
      "NAME": "ウエルシア薬局足立竹の塚店",
      "DISTRICT": "足立区",
      "ADDRESS": "東京都足立区竹ノ塚５－２４－１１",
      "HOURS": "月～土　9:00～19:30",
      "PCR": "○",
      "ANTIBODY": "○",
      "LOCATION": "35.796759425017875, 139.7948415400004"
    },
    {
      "NAME": "ウエルシア薬局足立島根店",
      "DISTRICT": "足立区",
      "ADDRESS": "東京都足立区島根３－２０－１７",
      "HOURS": "月～土　9:00～20:00",
      "PCR": "○",
      "ANTIBODY": "○",
      "LOCATION": "35.78101497284115, 139.7969336976702"
    },
    {
      "NAME": "ウエルシア薬局足立南花畑店",
      "DISTRICT": "足立区",
      "ADDRESS": "東京都足立区南花畑２－４５－２",
      "HOURS": "月～土　9:00～20:00\n日祝       10:00～14:00 \n              15:00～19:00",
      "PCR": "○",
      "ANTIBODY": "○",
      "LOCATION": "35.793882341486096, 139.8174069995168"
    }
  ]
}