
{"type": "FeatureCollection",
  "crs": {
    "type": "name",
    "properties": { "name": "urn:ogc:def:crs:OGC:1.3:CRS84" }
  },
  "features": 
  [
    {
      "NAME": "木下グループ\n新型コロナＰＣＲセンター\n秋葉原店",
      "DISTRICT": "千代田区",
      "ADDRESS": "千代田区外神田１－１４－７\n秋葉原野村ビル",
      "HOURS": "１０時～１８時　無休",
      "PCR": "○",
      "ANTIBODY": "○",
      "LOCATION": "35.698472899253346, 139.77179086883325"
    },
    {
      "NAME": "ウエルシア薬局秋葉原駅前店",
      "DISTRICT": "千代田区",
      "ADDRESS": "東京都千代田区外神田1-18-19 BiTO AKIBA 1階",
      "HOURS": "毎日　9:00～20:00",
      "PCR": "○",
      "ANTIBODY": "○",
      "LOCATION": "35.6989258241028, 139.7722337823276"
    },
    {
      "NAME": "ウエルシア薬局千代田御茶ノ水店",
      "DISTRICT": "千代田区",
      "ADDRESS": "東京都千代田区外神田２－２－１５　ウエルシアビル１Ｆ",
      "HOURS": "月～土　9:00～14:00、15:00～19:00",
      "PCR": "○",
      "ANTIBODY": "○",
      "LOCATION": "35.699629660953896, 139.7677655804812"
    },
    {
      "NAME": "ウエルシア薬局千代田麹町店",
      "DISTRICT": "千代田区",
      "ADDRESS": "東京都千代田区麹町３－４トラスティ麹町ビル１Ｆ",
      "HOURS": "月～金　9:00～19:00\n土　　　10:00～14:00",
      "PCR": "○",
      "ANTIBODY": "○",
      "LOCATION": "35.68508875349833, 139.73762663105074"
    },
    {
      "NAME": "ウエルシア薬局神田小川町2号店",
      "DISTRICT": "千代田区",
      "ADDRESS": "東京都千代田区神田小川町一丁目１番地",
      "HOURS": "月～金　9:00～14:00、15:00～19:00\n土　　　10:00～14:00",
      "PCR": "○",
      "ANTIBODY": "○",
      "LOCATION": "35.69491957227692, 139.76680383999795"
    },
    {
      "NAME": "ウエルシア薬局神田小川町店",
      "DISTRICT": "千代田区",
      "ADDRESS": "東京都千代田区神田小川町一丁目２番地",
      "HOURS": "月～金　9:00～2:00\n土　　　9:00～13:00、14:00～19:00\n日　11:00～16:00",
      "PCR": "○",
      "ANTIBODY": "○",
      "LOCATION": "35.69479737257074, 139.76371117067944"
    },
    {
      "NAME": "クリニックフォア飯田橋",
      "DISTRICT": "千代田区",
      "ADDRESS": "東京都千代田区富士見２丁目７番１号飯田橋プラーノ１階",
      "HOURS": "月曜日～金曜日　10:00～20:00\n土日祝　　　　　9:00～18:00",
      "PCR": "○",
      "ANTIBODY": "",
      "LOCATION": "35.70082824187473, 139.74499969766845"
    },
    {
      "NAME": "医療法人社団エムズ　\nクリニックフォア有楽町",
      "DISTRICT": "千代田区",
      "ADDRESS": "東京都千代田区有楽町2丁目7-1 イトシア Ｂ1Ｆ",
      "HOURS": "月曜日～金曜日　10:00～20:30\n土日祝　　　　　休み",
      "PCR": "○",
      "ANTIBODY": "",
      "LOCATION": "35.67443372151022, 139.76324005533817"
    },
    {
      "NAME": "クリニックフォア大手町",
      "DISTRICT": "千代田区",
      "ADDRESS": "東京都千代田区大手町1丁目2番1号OtemachiOne地下1階",
      "HOURS": "月曜日～金曜日　9:00～20:30\n土日祝　　　　　休み",
      "PCR": "○",
      "ANTIBODY": "",
      "LOCATION": "35.68786776439276, 139.76221036375853"
    },
    {
      "NAME": "薬局トモズ大手町カンファレンスセンター店",
      "DISTRICT": "千代田区",
      "ADDRESS": "東京都千代田区大手町一丁目3番2号　大手町ｶﾝﾌｧﾚﾝｽｾﾝﾀｰＢ1Ｆ",
      "HOURS": "月〜金　8：00～20：00\n土・日・祝　休業",
      "PCR": "○",
      "ANTIBODY": "○",
      "LOCATION": "35.68868273140285, 139.7636344418442"
    },
    {
      "NAME": "薬局トモズ神田和泉町店",
      "DISTRICT": "千代田区",
      "ADDRESS": "東京都千代田区神田和泉町1番地 住友商事神田和泉町ﾋﾞﾙ 1階",
      "HOURS": "月〜金 9：00～18：00\n土　　 9：00～13：00\n日・祝 休業",
      "PCR": "○",
      "ANTIBODY": "○",
      "LOCATION": "35.70023052139371, 139.77862089766847"
    },
    {
      "NAME": "医療法人社団MYメディカル\nMYメディカルクリニック大手町",
      "DISTRICT": "千代田区",
      "ADDRESS": "東京都千代田区大手町2-3-1\n大手町プレイス地下2階",
      "HOURS": "月～金：9:00～12:30、13:30～16:30\n土日祝日休業",
      "PCR": "○",
      "ANTIBODY": "",
      "LOCATION": "35.68712020416589, 139.76746938417386"
    }
  ]
}