
{"type": "FeatureCollection",
  "crs": {
    "type": "name",
    "properties": { "name": "urn:ogc:def:crs:OGC:1.3:CRS84" }
  },
  "features": 
  [
    {
      "NAME": "ウエルシア薬局東京スクエアガーデン店",
      "DISTRICT": "中央区",
      "ADDRESS": "東京都中央区京橋３－１－１",
      "HOURS": "月～土　　9:00～19:00",
      "PCR": "○",
      "ANTIBODY": "○",
      "LOCATION": "35.67627418644263, 139.76840325533826"
    },
    {
      "NAME": "ウエルシア薬局日本橋１号店",
      "DISTRICT": "中央区",
      "ADDRESS": "東京都中央区日本橋２－１－１０",
      "HOURS": "月～土　9:00～20:00\n   日祝　10:00～13:00\n              14:00~19:00",
      "PCR": "○",
      "ANTIBODY": "○",
      "LOCATION": "35.682497385013065, 139.77311278417363"
    },
    {
      "NAME": "ウエルシア薬局日本橋駅前店",
      "DISTRICT": "中央区",
      "ADDRESS": "東京都中央区日本橋２丁目１番１０号　柳屋ビル地下２階",
      "HOURS": "月～金　9:00~18:30\n　土　　9:30～14:00",
      "PCR": "○",
      "ANTIBODY": "○",
      "LOCATION": "35.682591872641595, 139.77314758417359"
    },
    {
      "NAME": "ファイヤークリニック　\n銀座院",
      "DISTRICT": "中央区",
      "ADDRESS": "東京都中央区京橋3－3－11　VOTE京橋　４F",
      "HOURS": "月曜日～日曜日　10:00〜21:00",
      "PCR": "○",
      "ANTIBODY": "",
      "LOCATION": "35.67580001822731, 139.76833216883287"
    },
    {
      "NAME": "ヘルス・マネジメント・クリニック",
      "DISTRICT": "中央区",
      "ADDRESS": "東京都中央区八重洲2-11-2 城辺橋ビル1階",
      "HOURS": "月曜日～日曜日　9:00〜20:00",
      "PCR": "○",
      "ANTIBODY": "○",
      "LOCATION": "35.6760318023209, 139.76667331116218"
    },
    {
      "NAME": "薬局トモズ水天宮前店",
      "DISTRICT": "中央区",
      "ADDRESS": "東京都中央区日本橋人形町1-13-9 藤和日本橋人形町コープ1階",
      "HOURS": "月〜金9：00～19：00\n土　    9：00～14：00\n日・祝　休業",
      "PCR": "○",
      "ANTIBODY": "○",
      "LOCATION": "35.68382081197433, 139.78363472465693"
    },
    {
      "NAME": "薬局トモズ銀座三丁目店",
      "DISTRICT": "中央区",
      "ADDRESS": "東京都中央区銀座三丁目10-1　1階",
      "HOURS": "月〜金　　　　 9：00～19：00\n土・日・祝　休業",
      "PCR": "○",
      "ANTIBODY": "○",
      "LOCATION": "35.67182319616486, 139.76851949766777"
    },
    {
      "NAME": "薬局トモズ茅場町店",
      "DISTRICT": "中央区",
      "ADDRESS": "東京都中央区日本橋茅場町２－１０－５　住友生命茅場町ビル１Ｆ",
      "HOURS": "月〜金 10：00～19：00\n土・日・祝　休業",
      "PCR": "○",
      "ANTIBODY": "○",
      "LOCATION": "35.678651096313075, 139.7787684553383"
    },
    {
      "NAME": "薬局トモズ銀座八丁目店",
      "DISTRICT": "中央区",
      "ADDRESS": "東京都中央区銀座8-12-1　セイコー銀座ビル１階",
      "HOURS": "月〜金　　9：00～18：00\n土・日・祝　休業",
      "PCR": "○",
      "ANTIBODY": "○",
      "LOCATION": "35.66783693735884, 139.76317838232694"
    },
    {
      "NAME": "薬局トモズ築地店",
      "DISTRICT": "中央区",
      "ADDRESS": "東京都中央区築地1-12-12　ＳＩビル１階",
      "HOURS": "月〜金　9：30～19：00\n土・日・祝　休業",
      "PCR": "○",
      "ANTIBODY": "○",
      "LOCATION": "35.66835860373168, 139.77045095533802"
    },
    {
      "NAME": "にしたんクリニック銀座院",
      "DISTRICT": "中央区",
      "ADDRESS": "東京都中央区銀座7-9-11　モンブラン銀座ビル9階",
      "HOURS": "月～日　10：00～20：00\n祝日含む",
      "PCR": "○",
      "ANTIBODY": "",
      "LOCATION": "35.668736848246716, 139.76250478417333"
    }
  ]
}