{"type": "FeatureCollection",
    "crs": {
      "type": "name",
      "properties": { "name": "urn:ogc:def:crs:OGC:1.3:CRS84" }
    },
    "features": 
[
    {
      "NAME": "ウエルシア薬局江戸川一之江店",
      "DISTRICT": "江戸川区",
      "ADDRESS": "東京都江戸川区一之江７－７３－５",
      "HOURS": "月～金　9:00～20:00\n土　　　9:00～20:00\n日祝　   10:00～19:00",
      "PCR": "○",
      "ANTIBODY": "○",
      "LOCATION": "35.68550876626869, 139.87917077067945"
    },
    {
      "NAME": "ウエルシア薬局江戸川鹿骨店",
      "DISTRICT": "江戸川区",
      "ADDRESS": "東京都江戸川区鹿骨４－２－９",
      "HOURS": "月～土　10:00～20:00",
      "PCR": "○",
      "ANTIBODY": "○",
      "LOCATION": "35.712374384798586, 139.8889512553391"
    },
    {
      "NAME": "ウエルシア薬局江戸川篠崎店",
      "DISTRICT": "江戸川区",
      "ADDRESS": "東京都江戸川区篠崎町２－１７１",
      "HOURS": "月～土　10:00～14:00 15:00～19:00",
      "PCR": "○",
      "ANTIBODY": "○",
      "LOCATION": "35.7069669372297, 139.9071495020266"
    },
    {
      "NAME": "ウエルシア薬局江戸川松本店",
      "DISTRICT": "江戸川区",
      "ADDRESS": "東京都江戸川区松本１－１６－２１",
      "HOURS": "月～土　9:00～19:00",
      "PCR": "○",
      "ANTIBODY": "○",
      "LOCATION": "35.715323145840514, 139.87605013999828"
    },
    {
      "NAME": "ウエルシア薬局江戸川西葛西店",
      "DISTRICT": "江戸川区",
      "ADDRESS": "東京都江戸川区西葛西５－２－１０牧山ビル",
      "HOURS": "月～土　9:00～13:00 14:00～18:00",
      "PCR": "○",
      "ANTIBODY": "○",
      "LOCATION": "35.666200308445134, 139.85974609766762"
    },
    {
      "NAME": "ウエルシア江戸川葛西薬局",
      "DISTRICT": "江戸川区",
      "ADDRESS": "東京都江戸川区船掘７－１０－８",
      "HOURS": "月～土　9:00～18:00",
      "PCR": "○",
      "ANTIBODY": "○",
      "LOCATION": "35.677360268867794, 139.86929358601992"
    },
    {
      "NAME": "ウエルシア薬局江戸川中葛西店",
      "DISTRICT": "江戸川区",
      "ADDRESS": "東京都江戸川区中葛西６－８－１１",
      "HOURS": "月～金　9:00～20:00\n土日祝　9:00～19:00",
      "PCR": "○",
      "ANTIBODY": "○",
      "LOCATION": "35.66015732164115, 139.866154055338"
    },
    {
      "NAME": "ウエルシア薬局江戸川東瑞江店",
      "DISTRICT": "江戸川区",
      "ADDRESS": "東京都江戸川区東瑞江１－１９－２",
      "HOURS": "月～土　10:00～14:00 15:00～19:00",
      "PCR": "○",
      "ANTIBODY": "○",
      "LOCATION": "35.689874859899376, 139.8983416706794"
    },
    {
      "NAME": "ウエルシア薬局江戸川瑞江駅前店",
      "DISTRICT": "江戸川区",
      "ADDRESS": "東京都江戸川区南篠崎町３－１－３",
      "HOURS": "月～土　9:00～19:00\n日祝　    9:00～18:00",
      "PCR": "○",
      "ANTIBODY": "○",
      "LOCATION": "35.69382262854846, 139.89907779766818"
    },
    {
      "NAME": "ウエルシア薬局江戸川本一色店",
      "DISTRICT": "江戸川区",
      "ADDRESS": "東京都江戸川区本一色３－７－２",
      "HOURS": "月～土　10:00～14:00 15:00～20:00",
      "PCR": "○",
      "ANTIBODY": "○",
      "LOCATION": "35.72212492748615, 139.8681099265041"
    },
    {
      "NAME": "セルフ調剤薬局葛西店",
      "DISTRICT": "江戸川区",
      "ADDRESS": "東京都江戸川区東葛西6-15-16　ステラⅡスゴン1階",
      "HOURS": "月～金　9：00～18：00\n土　9：00～13：30\n日・祝　休業",
      "PCR": "○",
      "ANTIBODY": "○",
      "LOCATION": "35.662144482991685, 139.8767502071844"
    },
    {
      "NAME": "セルフ調剤薬局松江店",
      "DISTRICT": "江戸川区",
      "ADDRESS": "東京都江戸川区松江2-43-8",
      "HOURS": "月～土　9：00～19：30\n日　9：00～13：00\n祝　9：00～17：00",
      "PCR": "○",
      "ANTIBODY": "○",
      "LOCATION": "35.702920666176254, 139.8752068688333"
    },
    {
      "NAME": "エース調剤薬局",
      "DISTRICT": "江戸川区",
      "ADDRESS": "東京都江戸川区松江2-16-5　池田マンション1階",
      "HOURS": "月・火・水・金　9：00～13：00　15：00～19：00\n木・土　9：00～13：00\n日・祝　休業",
      "PCR": "○",
      "ANTIBODY": "○",
      "LOCATION": "35.70305530652426, 139.87270192802853"
    }
  ]
}