{"type": "FeatureCollection",
    "crs": {
      "type": "name",
      "properties": { "name": "urn:ogc:def:crs:OGC:1.3:CRS84" }
    },
    "features": 
[
    {
      "NAME": "ウエルシア薬局板橋新高島平店",
      "DISTRICT": "板橋区",
      "ADDRESS": "東京都板橋区高島平７－１３－４",
      "HOURS": "月～土　9:00～14:00\n　　　　15:00～19:00",
      "PCR": "○",
      "ANTIBODY": "○",
      "LOCATION": "35.790731047305485, 139.6541010976705"
    },
    {
      "NAME": "ウエルシア薬局板橋四葉店",
      "DISTRICT": "板橋区",
      "ADDRESS": "東京都板橋区四葉２－１０－１",
      "HOURS": "月～土　9:00～13:30\n　　　　14:30～19:00",
      "PCR": "○",
      "ANTIBODY": "○",
      "LOCATION": "35.781214972315546, 139.65364616883508"
    },
    {
      "NAME": "ウエルシア薬局板橋志村店",
      "DISTRICT": "板橋区",
      "ADDRESS": "東京都板橋区志村１－３－１",
      "HOURS": "月～土　9:00～20:00",
      "PCR": "○",
      "ANTIBODY": "○",
      "LOCATION": "35.77112636911084, 139.69836741301083"
    },
    {
      "NAME": "ウエルシア薬局板橋浮間舟渡店",
      "DISTRICT": "板橋区",
      "ADDRESS": "東京都板橋区舟渡１－１３－２３レジデンスＢＳ",
      "HOURS": "月～土　9:00～14:00\n              15:00～19:00\n　日　　9:00~14:00\n              15:00～18:00",
      "PCR": "○",
      "ANTIBODY": "○",
      "LOCATION": "35.79183744439735, 139.69071558232983"
    },
    {
      "NAME": "ウエルシア薬局板橋赤塚店",
      "DISTRICT": "板橋区",
      "ADDRESS": "東京都板橋区赤塚６－１－２６",
      "HOURS": "月～日　9:00～20:00",
      "PCR": "○",
      "ANTIBODY": "○",
      "LOCATION": "35.773491631640475, 139.64625672650524"
    },
    {
      "NAME": "ウエルシア薬局板橋徳丸店",
      "DISTRICT": "板橋区",
      "ADDRESS": "東京都板橋区徳丸６－３－２",
      "HOURS": "月～土　9:00～13:30\n　　　　14:30～19:00",
      "PCR": "○",
      "ANTIBODY": "○",
      "LOCATION": "35.77613455484114, 139.66249862650537"
    },
    {
      "NAME": "ウエルシア薬局板橋下板橋店",
      "DISTRICT": "板橋区",
      "ADDRESS": "東京都板橋区板橋１‐６‐５ヒルサイドビル",
      "HOURS": "月～土　9:00～14:00\n　　　　15:00～19:00",
      "PCR": "○",
      "ANTIBODY": "○",
      "LOCATION": "35.74713677699418, 139.71572871301026"
    },
    {
      "NAME": "薬局トモズ上板橋北口店",
      "DISTRICT": "板橋区",
      "ADDRESS": "東京都板橋区常盤台4-31-3",
      "HOURS": "月～土　10：00～19：00\n日・祝　休業",
      "PCR": "○",
      "ANTIBODY": "○",
      "LOCATION": "35.7643386711023, 139.67722409766992"
    },
    {
      "NAME": "薬局トモズ大山店",
      "DISTRICT": "板橋区",
      "ADDRESS": "東京都板橋区大山町36-10くじゃくやビル1階",
      "HOURS": "月～金　9：00～19：00\n土       　9：00～18：00\n日       　10：00～14：00\n祝　       休業",
      "PCR": "○",
      "ANTIBODY": "○",
      "LOCATION": "35.74943536312558, 139.70012043999915"
    },
    {
      "NAME": "薬局トモズ上板橋南口店",
      "DISTRICT": "板橋区",
      "ADDRESS": "東京都板橋区上板橋1-25-10 JTプラザ上板橋１F",
      "HOURS": "月・火・水・金　9：00～18：30\n木・土               　9：00～17：00\n日・祝　       休業",
      "PCR": "○",
      "ANTIBODY": "○",
      "LOCATION": "35.7618738428823, 139.675015660795"
    },
    {
      "NAME": "薬局トモズ大谷口店",
      "DISTRICT": "板橋区",
      "ADDRESS": "東京都板橋区大谷口2-67-3",
      "HOURS": "月～日　9：00～18：00",
      "PCR": "○",
      "ANTIBODY": "○",
      "LOCATION": "35.74767880778631, 139.68617126883433"
    },
    {
      "NAME": "薬局トモズ 下赤塚店",
      "DISTRICT": "板橋区",
      "ADDRESS": "東京都板橋区赤塚2-2-18",
      "HOURS": "月～金　10：00～19：00\n土・日・祝　       休業",
      "PCR": "○",
      "ANTIBODY": "○",
      "LOCATION": "35.77125828365983, 139.64553958417562"
    }
  ]
}