{
    "type": "FeatureCollection",
    "crs": {
      "type": "name",
      "properties": { "name": "urn:ogc:def:crs:OGC:1.3:CRS84" }
    },
    "features":
[
    {
      "NAME": "ウエルシア薬局葛飾奥戸店",
      "DISTRICT": "葛飾区",
      "ADDRESS": "東京都葛飾区奥戸５－５－１",
      "HOURS": "月～土　9:00～19:00\n日　       9:00～13:00",
      "PCR": "○",
      "ANTIBODY": "○",
      "LOCATION": "35.73359429738474, 139.8650220399987"
    },
    {
      "NAME": "ウエルシア薬局葛飾亀有店",
      "DISTRICT": "葛飾区",
      "ADDRESS": "東京都葛飾区亀有２－１６－１",
      "HOURS": "\n月～土　9:00～20:00\n日　       9:00～19:00",
      "PCR": "○",
      "ANTIBODY": "○",
      "LOCATION": "35.75900690554196, 139.84805182650487"
    },
    {
      "NAME": "ウエルシア薬局亀有駅前店",
      "DISTRICT": "葛飾区",
      "ADDRESS": "東京都葛飾区亀有三丁目３１番４号　１階",
      "HOURS": "月～土　10:00～14:00 15:00～19:00",
      "PCR": "○",
      "ANTIBODY": "○",
      "LOCATION": "35.76538108043118, 139.8487415418458"
    },
    {
      "NAME": "ウエルシア薬局葛飾水元店",
      "DISTRICT": "葛飾区",
      "ADDRESS": "東京都葛飾区水元４－１０－２３",
      "HOURS": "月～日祝　9:00～20:00",
      "PCR": "○",
      "ANTIBODY": "○",
      "LOCATION": "35.78621834596295, 139.8619595553408"
    },
    {
      "NAME": "ウエルシア薬局葛飾東立石店",
      "DISTRICT": "葛飾区",
      "ADDRESS": "東京都葛飾区東立石一丁目12番9号",
      "HOURS": "月～土　10:00～14:00 15:00～19:00",
      "PCR": "○",
      "ANTIBODY": "○",
      "LOCATION": "35.73004133114185, 139.8480407265043"
    },
    {
      "NAME": "ウエルシア薬局葛飾立石店",
      "DISTRICT": "葛飾区",
      "ADDRESS": "東京都葛飾区立石５－７－１９",
      "HOURS": "月～土　9:30～13:30 14:30～18:30",
      "PCR": "○",
      "ANTIBODY": "○",
      "LOCATION": "35.74206011823615, 139.84363963999903"
    },
    {
      "NAME": "薬局トモズお花茶屋店",
      "DISTRICT": "葛飾区",
      "ADDRESS": "東京都葛飾区宝町二丁目34番16号　1階",
      "HOURS": "月・火・木・金　9：00～19：00\n水　       9：00～18：00\n土　       9：00～13：00\n日・祝　休業",
      "PCR": "○",
      "ANTIBODY": "○",
      "LOCATION": "35.747177701149866, 139.84029702650477"
    },
    {
      "NAME": "薬局トモズ葛飾青戸店",
      "DISTRICT": "葛飾区",
      "ADDRESS": "東京都葛飾区青戸8-3-10　リバティー亀有Ⅱ",
      "HOURS": "月・火・水・金　8：30～12：00／15：00～18：30\n土　8：30～12：00\n木・日・祝　休業",
      "PCR": "○",
      "ANTIBODY": "○",
      "LOCATION": "35.75664739575188, 139.849541138153"
    }
  ]
}