
{"type": "FeatureCollection",
    "crs": {
      "type": "name",
      "properties": { "name": "urn:ogc:def:crs:OGC:1.3:CRS84" }
    },
    "features": 
[
    {
      "NAME": "ウエルシア薬局西が丘店",
      "DISTRICT": "北区",
      "ADDRESS": "東京都北区西が丘１－５－１１　ハイツトーワ１０１",
      "HOURS": "月～金　9:00～18:30\n   土　　9:00～13:00",
      "PCR": "○",
      "ANTIBODY": "○",
      "LOCATION": "35.77192328699665, 139.71508176883475"
    },
    {
      "NAME": "ウエルシア薬局赤羽台店",
      "DISTRICT": "北区",
      "ADDRESS": "東京都北区赤羽台１－５－１８",
      "HOURS": "月～金　9:00～20:00\n土　　9:00～19:00\n日      10:00～13:00\n              14:00~19:00",
      "PCR": "○",
      "ANTIBODY": "○",
      "LOCATION": "35.77820774263792, 139.71473301301108"
    },
    {
      "NAME": "ウエルシア薬局田端２丁目店",
      "DISTRICT": "北区",
      "ADDRESS": "東京都北区田端２－３－１２サントル動坂１Ｆ",
      "HOURS": "月～土　9:00～13:30\n              14:30～19:00",
      "PCR": "○",
      "ANTIBODY": "○",
      "LOCATION": "35.734159932927014, 139.75713898232829"
    },
    {
      "NAME": "ウエルシア薬局浮間店",
      "DISTRICT": "北区",
      "ADDRESS": "東京都北区浮間２－１２－２４",
      "HOURS": "毎日　9:00～20:00\n",
      "PCR": "○",
      "ANTIBODY": "○",
      "LOCATION": "35.79116392135525, 139.6973197958241"
    }
  ]
}