{"type": "FeatureCollection",
    "crs": {
      "type": "name",
      "properties": { "name": "urn:ogc:def:crs:OGC:1.3:CRS84" }
    },
    "features": 
[
    {
      "NAME": "ウエルシア薬局ダイエー東大島店",
      "DISTRICT": "江東区",
      "ADDRESS": "東京都江東区大島７－３８－３０",
      "HOURS": "月～土　9:00～19:00",
      "PCR": "○",
      "ANTIBODY": "○",
      "LOCATION": "35.691025040505615, 139.84254628232742"
    },
    {
      "NAME": "ウエルシア薬局江東平野店",
      "DISTRICT": "江東区",
      "ADDRESS": "東京都江東区平野３‐７‐１９",
      "HOURS": "月～金　9:00～20:00\n土　　　9:00～18:00\n日　　　9:00～13:00",
      "PCR": "○",
      "ANTIBODY": "○",
      "LOCATION": "35.67829209713652, 139.80574668417364"
    },
    {
      "NAME": "薬局トモズ有明ガーデン店",
      "DISTRICT": "江東区",
      "ADDRESS": "東京都江東区有明2-1-8-2階",
      "HOURS": "月〜金    　9：00～21：00\n土       　9：00～19：00\n日・祝　9：00～19：00",
      "PCR": "○",
      "ANTIBODY": "○",
      "LOCATION": "35.638485868948614, 139.79163916883178"
    },
    {
      "NAME": "ベイ薬局 亀戸三丁目店",
      "DISTRICT": "江東区",
      "ADDRESS": "東京都江東区亀戸3-50-4",
      "HOURS": "月〜金　9：00～18：00\n土       　9：00～13：00\n日・祝　休業\n第1・第3 土　休業",
      "PCR": "○",
      "ANTIBODY": "○",
      "LOCATION": "35.70467078550206, 139.8234156534925"
    },
    {
      "NAME": "ベイ薬局 扇橋店",
      "DISTRICT": "江東区",
      "ADDRESS": "東京都江東区扇橋2-17-3秋元ビル１階",
      "HOURS": "月・水・金　9：00～12：30／14：00～19：00\n火・土・日　9：00～12：00\n木・祝　休業",
      "PCR": "○",
      "ANTIBODY": "○",
      "LOCATION": "35.684344412137776, 139.81645562650326"
    },
    {
      "NAME": "薬局トモズ亀戸東口店",
      "DISTRICT": "江東区",
      "ADDRESS": "東京都江東区亀戸6-58-12　Y&Sビル",
      "HOURS": "月～土　9：30～19：30\n日・祝　休業",
      "PCR": "○",
      "ANTIBODY": "○",
      "LOCATION": "35.6971535277824, 139.82826596883325"
    },
    {
      "NAME": "薬局トモズ東大島店",
      "DISTRICT": "江東区",
      "ADDRESS": "東京都江東区大島７－39－１　ソフィア東大島１０５",
      "HOURS": "月〜金　9：00～18：00\n土　       9：00～13：00\n日・祝　休業",
      "PCR": "○",
      "ANTIBODY": "○",
      "LOCATION": "35.690982554308505, 139.84360648232746"
    },
    {
      "NAME": "薬局ワンザファーマシー",
      "DISTRICT": "江東区",
      "ADDRESS": "東京都江東区有明3-6-11東京ファッションタウンビル東館2階",
      "HOURS": "月〜金　10:30～19:30\n土　　　10:30～16:00\n日祝　　休み ",
      "PCR": "",
      "ANTIBODY": "○",
      "LOCATION": "35.63097982586092, 139.79062192650213"
    }
  ]
}