{
    "type": "FeatureCollection",
    "crs": {
      "type": "name",
      "properties": { "name": "urn:ogc:def:crs:OGC:1.3:CRS84" }
    },
    "features":
[
    {
      "NAME": "ウエルシア薬局自由が丘店",
      "DISTRICT": "目黒区",
      "ADDRESS": "東京都目黒区自由が丘２－９－５　大坪ビル",
      "HOURS": "月～土　9:00～20:00\n日祝　　9:00～19:00",
      "PCR": "○",
      "ANTIBODY": "○",
      "LOCATION": "35.60941952283435, 139.66820254184228"
    },
    {
      "NAME": "ウエルシア薬局上目黒２丁目店",
      "DISTRICT": "目黒区",
      "ADDRESS": "東京都目黒区上目黒２－４２－８ホーライコーポ",
      "HOURS": "月～金　9:00～14:00\n　　　　15:00～19:00\n土　　　10:00～14:00",
      "PCR": "○",
      "ANTIBODY": "○",
      "LOCATION": "35.640885425344315, 139.69464428232644"
    },
    {
      "NAME": "ウエルシア薬局目黒青葉台店",
      "DISTRICT": "目黒区",
      "ADDRESS": "東京都目黒区青葉台一丁目29番6号    ライオンズマンション中目黒　1階",
      "HOURS": "月～土　9:00～13：30\n　　　　14:30～19:00\n日　　　9:00～14:30",
      "PCR": "○",
      "ANTIBODY": "○",
      "LOCATION": "35.646924450530754, 139.69598819582086"
    },
    {
      "NAME": "薬局トモズ洗足店",
      "DISTRICT": "目黒区",
      "ADDRESS": "東京都目黒区洗足2-7-15",
      "HOURS": " \n月〜金 9：00～20：00\n土　　 9：00～18：00\n日・祝　休業\n",
      "PCR": "○",
      "ANTIBODY": "○",
      "LOCATION": "35.61162302755414, 139.69373726883123"
    },
    {
      "NAME": "薬局トモズ　エトモ祐天寺店",
      "DISTRICT": "目黒区",
      "ADDRESS": "東京都目黒区祐天寺2-13-4",
      "HOURS": "月〜金　9：00～19：30\n土       　9：30～14：00\n日・祝　休業",
      "PCR": "○",
      "ANTIBODY": "○",
      "LOCATION": "35.63780724851946, 139.69102272650233"
    }
  ]
}