{
  "type": "FeatureCollection",
  "crs": {
    "type": "name",
    "properties": { "name": "urn:ogc:def:crs:OGC:1.3:CRS84" }
  },
  "features":[
    {
      "NAME": "木下グループ\n新型コロナＰＣＲセンター\n新橋店",
      "DISTRICT": "港区",
      "ADDRESS": "港区新橋２－１６－１\nニュー新橋ビル１階西側角",
      "HOURS": "８時～１８時\n奇数月第２日曜定休",
      "PCR": "○",
      "ANTIBODY": "○",
      "LOCATION": "35.6663822408535, 139.75712448601965"
    },
    {
      "NAME": "木下グループ\n新型コロナＰＣＲセンター\n浜松町店",
      "DISTRICT": "港区",
      "ADDRESS": "港区芝大門１－１６－８",
      "HOURS": "１０時～１８時　無休",
      "PCR": "○",
      "ANTIBODY": "○",
      "LOCATION": "35.65712592380333, 139.75431441116194"
    },
    {
      "NAME": "ピカパカ\nＰＣＲクイック検査センター\n新橋店",
      "DISTRICT": "港区",
      "ADDRESS": "港区新橋１－１７－１\n内田ビル１階",
      "HOURS": "９時～１８時　無休",
      "PCR": "○",
      "ANTIBODY": "",
      "LOCATION": "35.66871955138747, 139.75682573815104"
    },
    {
      "NAME": "ウエルシア薬局南麻布店",
      "DISTRICT": "港区",
      "ADDRESS": "東京都港区南麻布五丁目1番11号　１F",
      "HOURS": "月～土　9:00～14:00\n　　　　15:00～19:00",
      "PCR": "○",
      "ANTIBODY": "○",
      "LOCATION": "35.65511332082589, 139.72267744184333"
    },
    {
      "NAME": "ウエルシア薬局麻布十番店",
      "DISTRICT": "港区",
      "ADDRESS": "東京都港区麻布十番２－９－２",
      "HOURS": "月～土　9:00～20:00\n日　　　9:00～13:00",
      "PCR": "○",
      "ANTIBODY": "○",
      "LOCATION": "35.65521926628952, 139.73451902715396"
    },
    {
      "NAME": "クリニックフォア新橋",
      "DISTRICT": "港区",
      "ADDRESS": "東京都港区新橋１丁目４番５号ヒューリックＧ１０ビル９階",
      "HOURS": "月曜日～金曜日　9:30～21:00\n土日祝　　　　　9:00～18:00",
      "PCR": "○",
      "ANTIBODY": "",
      "LOCATION": "35.66809413674094, 139.7590222823269"
    },
    {
      "NAME": "医療法人社団エムズ　\nクリニックフォア田町",
      "DISTRICT": "港区",
      "ADDRESS": "東京都港区芝浦3−1−32なぎさテラス4階",
      "HOURS": "月曜日～金曜日　9:30～21:00\n土日祝　　　　　９時～18:00",
      "PCR": "○",
      "ANTIBODY": "",
      "LOCATION": "35.645111779600924, 139.74834693999682"
    },
    {
      "NAME": "医療法人社団　大瑛会\nＴケアクリニック浜松町",
      "DISTRICT": "港区",
      "ADDRESS": " 東京都港区浜松町2ｰ13ｰ9　G1ビル2F",
      "HOURS": "月曜日～日曜日　\n9:00～14:30　\n15:30～19:00　無休　",
      "PCR": "○",
      "ANTIBODY": "○",
      "LOCATION": "35.6534541609914, 139.75557211300807"
    },
    {
      "NAME": "MDT衛生検査所　赤坂受付センター",
      "DISTRICT": "港区",
      "ADDRESS": "東京都港区赤坂1-9-13　三会堂ビルB1F",
      "HOURS": "月曜日～金曜日09：00～20：00　土日祝日休",
      "PCR": "○",
      "ANTIBODY": "",
      "LOCATION": "35.57472563998984, 139.72598025348964"
    },
    {
      "NAME": "医療法人社団べスリ会東京TMSクリニック\n大規模PCR検査センター（赤坂見附駅前）",
      "DISTRICT": "港区",
      "ADDRESS": "東京都港区赤坂3-2-6　赤坂光映ビル 1階・地下1階",
      "HOURS": "月曜日～日曜日(祝日含む)　10:00〜21:00 ",
      "PCR": "○",
      "ANTIBODY": "",
      "LOCATION": "35.648031637701614, 139.7092619706784"
    },
    {
      "NAME": "薬局トモズ麻布十番店",
      "DISTRICT": "港区",
      "ADDRESS": "東京都港区麻布十番3-7-11ｼｬﾄｰﾃﾞｽﾎﾟﾜｰﾙ麻布101号",
      "HOURS": "月〜金　10：00～19：00\n土・日・祝　休業",
      "PCR": "○",
      "ANTIBODY": "○",
      "LOCATION": "35.653770253365295, 139.73482775533782"
    }
  ]
}
