
{"type": "FeatureCollection",
    "crs": {
      "type": "name",
      "properties": { "name": "urn:ogc:def:crs:OGC:1.3:CRS84" }
    },
    "features": 
[
    {
      "NAME": "ウエルシア薬局中野都立家政店",
      "DISTRICT": "中野区",
      "ADDRESS": "東京都中野区鷺ノ宮１－２８－９モンフレール１Ｆ",
      "HOURS": "月～金　9:00～19:00\n土　　　9:00～15:00",
      "PCR": "○",
      "ANTIBODY": "○",
      "LOCATION": "35.72407378196997, 139.64401671300976"
    },
    {
      "NAME": "ウエルシア中野さぎの宮調剤薬局",
      "DISTRICT": "中野区",
      "ADDRESS": "東京都中野区鷺宮３－１９－７　田中ビル１階２階",
      "HOURS": "月～金　9:00～14:00\n　　　　15:00～19:00\n土　　　9:00～14:00",
      "PCR": "○",
      "ANTIBODY": "○",
      "LOCATION": "35.72373794353349, 139.63824703999845"
    },
    {
      "NAME": "ウエルシア薬局中野新橋店",
      "DISTRICT": "中野区",
      "ADDRESS": "東京都中野区弥生町２－４－９ツナシマ第三ビル1Ｆ・Ｂ1",
      "HOURS": "月～金　9:00～14:00\n　　　　15:00～19:00\n土　　　9:00～13:00",
      "PCR": "○",
      "ANTIBODY": "○",
      "LOCATION": "35.69151134961658, 139.67680535973832"
    },
    {
      "NAME": "ウエルシア薬局中野富士見町駅前店",
      "DISTRICT": "中野区",
      "ADDRESS": "東京都中野区弥生町５－２６－９",
      "HOURS": "月～金　9:00～19:00\n土　　　9:00～13:00",
      "PCR": "○",
      "ANTIBODY": "○",
      "LOCATION": "35.69121148119029, 139.66795350931633"
    }
  ]
}