{
    "type": "FeatureCollection",
    "crs": {
      "type": "name",
      "properties": { "name": "urn:ogc:def:crs:OGC:1.3:CRS84" }
    },
    "features":
[
    {
      "NAME": "ウエルシア薬局練馬下石神井店",
      "DISTRICT": "練馬区",
      "ADDRESS": "東京都練馬区下石神井５－１６－１３",
      "HOURS": "月～土　9:00 ～ 14:00\n　　　　15:00 ～ 19:00",
      "PCR": "○",
      "ANTIBODY": "○",
      "LOCATION": "35.73018157804301, 139.59986366883402"
    },
    {
      "NAME": "ウエルシア薬局練馬向山店",
      "DISTRICT": "練馬区",
      "ADDRESS": "東京都練馬区向山４－３４－３",
      "HOURS": "月～土　9:00 ～ 13:30\n　　　　14:30 ～ 20:00",
      "PCR": "○",
      "ANTIBODY": "○",
      "LOCATION": "35.7439105544387, 139.6354706418454"
    },
    {
      "NAME": "ウエルシア薬局練馬高松店",
      "DISTRICT": "練馬区",
      "ADDRESS": "東京都練馬区高松６－９－４",
      "HOURS": "月～土　9:00 ～ 20:00\n日、祝　10:00 ～ 14:00\n　　　　15:00 ～ 20:00",
      "PCR": "○",
      "ANTIBODY": "○",
      "LOCATION": "35.75729070929818, 139.61738584184565"
    },
    {
      "NAME": "ハックドラッグピーコック高野台薬局",
      "DISTRICT": "練馬区",
      "ADDRESS": "東京都練馬区高野台１－７－１７　ピーコック高野台１Ｆ",
      "HOURS": "月～土　9:00 ～ 19:00",
      "PCR": "○",
      "ANTIBODY": "○",
      "LOCATION": "35.74168154978531, 139.61686733048217"
    },
    {
      "NAME": "ウエルシア薬局練馬桜台店",
      "DISTRICT": "練馬区",
      "ADDRESS": "東京都練馬区桜台1-28-8",
      "HOURS": "月～土　9:00～13:30\n　　　　14:30～19:00",
      "PCR": "○",
      "ANTIBODY": "○",
      "LOCATION": "35.74109884472998, 139.6678585688342"
    },
    {
      "NAME": "ウエルシア薬局練馬三原台店",
      "DISTRICT": "練馬区",
      "ADDRESS": "東京都練馬区三原台３－８－３メゾンド下屋敷",
      "HOURS": "月～土　10:00 ～ 14:00\n　　　　15:00 ～ 19:00",
      "PCR": "○",
      "ANTIBODY": "○",
      "LOCATION": "35.75096405178237, 139.59847288417515"
    },
    {
      "NAME": "ウエルシア薬局練馬上石神井店",
      "DISTRICT": "練馬区",
      "ADDRESS": "東京都練馬区上石神井１－５－１０コンフォートビル",
      "HOURS": "月～日　10:00 ～ 14:00\n　　　　15:00 ～ 19:00",
      "PCR": "○",
      "ANTIBODY": "○",
      "LOCATION": "35.72569421874559, 139.5916829149935"
    },
    {
      "NAME": "ウエルシア薬局練馬石神井店",
      "DISTRICT": "練馬区",
      "ADDRESS": "東京都練馬区石神井町６－１５－８",
      "HOURS": "月～土　9:00 ～ 20:00",
      "PCR": "○",
      "ANTIBODY": "○",
      "LOCATION": "35.74321222409684, 139.60155599766938"
    },
    {
      "NAME": "ウエルシア薬局練馬早宮店",
      "DISTRICT": "練馬区",
      "ADDRESS": "東京都練馬区早宮４－３７－２",
      "HOURS": "月～土　9:00～20:00",
      "PCR": "○",
      "ANTIBODY": "○",
      "LOCATION": "35.74782659004737, 139.64918716871279"
    },
    {
      "NAME": "ウエルシア薬局練馬谷原店",
      "DISTRICT": "練馬区",
      "ADDRESS": "東京都練馬区谷原5-4-2",
      "HOURS": "月～土　10:00 ～ 13:00\n　　　　14:00 ～ 19:00",
      "PCR": "○",
      "ANTIBODY": "○",
      "LOCATION": "35.7477656376512, 139.6492729995159"
    },
    {
      "NAME": "ウエルシア薬局練馬東大泉店",
      "DISTRICT": "練馬区",
      "ADDRESS": "東京都練馬区東大泉６－４９－２グランフォンテ大泉学園",
      "HOURS": "月～水、金　9:00 ～ 19:00\n木　　　　　9:00 ～ 14:00\n　　　　　　15:00 ～ 19:00\n土　　　　　9:00 ～14:00\n　　　　　　15:00 ～ 17:00",
      "PCR": "○",
      "ANTIBODY": "○",
      "LOCATION": "35.74843573611153, 139.58309003999904"
    },
    {
      "NAME": "ウエルシア薬局練馬南大泉店",
      "DISTRICT": "練馬区",
      "ADDRESS": "東京都練馬区南大泉５－２０－２８",
      "HOURS": "月～金　9:00 ～ 19:00\n土　　　9:00 ～ 13:00",
      "PCR": "○",
      "ANTIBODY": "○",
      "LOCATION": "35.74957996273017, 139.5744014130104"
    },
    {
      "NAME": "ウエルシア薬局練馬平和台店",
      "DISTRICT": "練馬区",
      "ADDRESS": "東京都練馬区平和台4丁目26-8　ザ・グランディール平和台Ⅰ　1階",
      "HOURS": "月～土　9:00～13:00\n　　　　14:00～19:00",
      "PCR": "○",
      "ANTIBODY": "○",
      "LOCATION": "35.75853630657196, 139.65421666883444"
    },
    {
      "NAME": "ウエルシア薬局豊玉目白通り店",
      "DISTRICT": "練馬区",
      "ADDRESS": "東京都練馬区豊玉北５－２４－２",
      "HOURS": "月～日　9:00～20:00\n無休",
      "PCR": "○",
      "ANTIBODY": "○",
      "LOCATION": "35.735336483941495, 139.65467052650442"
    },
    {
      "NAME": "ウエルシア薬局練馬豊玉店",
      "DISTRICT": "練馬区",
      "ADDRESS": "東京都練馬区豊玉北６－１－２　ディアマークスキャピタルタワー",
      "HOURS": "月～日　9:00～13:30\n　　　　14:30～19:00\n祝日休み",
      "PCR": "○",
      "ANTIBODY": "○",
      "LOCATION": "35.73656263718989, 139.65228505533963"
    },
    {
      "NAME": "薬局トモズ大泉学園店",
      "DISTRICT": "練馬区",
      "ADDRESS": "東京都練馬区東大泉1丁目31-1",
      "HOURS": "月・火・木・金　9：00～19：00\n水　　              　 9：00～17：00\n土　　              　 9：00～18：00\n日・祝　               休業",
      "PCR": "○",
      "ANTIBODY": "○",
      "LOCATION": "35.750359138917425, 139.58729626883442"
    },
    {
      "NAME": "薬局トモズ練馬高野台店",
      "DISTRICT": "練馬区",
      "ADDRESS": "東京都練馬区高野台1-7-33",
      "HOURS": "月～金　9：00～18：00\n土       　9：00～15：00\n日・祝　休業",
      "PCR": "○",
      "ANTIBODY": "○",
      "LOCATION": "35.7413693113169, 139.61586963999898"
    },
    {
      "NAME": "薬局トモズ石神井公園店",
      "DISTRICT": "練馬区",
      "ADDRESS": "東京都練馬区石神井町二丁目8番21号MJYビル1階",
      "HOURS": "月～金　9：00～19：00\n土       　9：00～18：00\n日・祝　休業",
      "PCR": "○",
      "ANTIBODY": "○",
      "LOCATION": "35.74438548242152, 139.6085820688343"
    },
    {
      "NAME": "薬局トモズCoconeri店",
      "DISTRICT": "練馬区",
      "ADDRESS": "東京都練馬区練馬1-17-1　2階",
      "HOURS": "月～土　9：00～18：00\n日       　9：00～12：30\n祝　       休業",
      "PCR": "○",
      "ANTIBODY": "○",
      "LOCATION": "35.73844859317328, 139.6533472688341"
    },
    {
      "NAME": "ファーコス薬局 錦",
      "DISTRICT": "練馬区",
      "ADDRESS": "東京都練馬区錦1-20-17　サンハイツフジ101",
      "HOURS": "営業時間9:00〜18:00\n受付時間9:00〜17:00\n土曜　　9:00〜13:00\n土曜受付9:00〜12:00\n定休日:日曜、祝日",
      "PCR": "",
      "ANTIBODY": "○",
      "LOCATION": "35.75892696233259, 139.6703156418458"
    }
  ]
}