
{"type": "FeatureCollection",
    "crs": {
      "type": "name",
      "properties": { "name": "urn:ogc:def:crs:OGC:1.3:CRS84" }
    },
    "features": 
[
    {
      "NAME": "木下グループ\n新型コロナＰＣＲセンター\n羽田空港第１ターミナル店",
      "DISTRICT": "大田区",
      "ADDRESS": "大田区羽田空港３－３－２",
      "HOURS": "７時～２０時　無休",
      "PCR": "○",
      "ANTIBODY": "○",
      "LOCATION": "35.557901729335384, 139.7839846111596"
    },
    {
      "NAME": "木下グループ\n新型コロナＰＣＲセンター\n羽田空港第２ターミナル店",
      "DISTRICT": "大田区",
      "ADDRESS": "大田区羽田空港３－４－２",
      "HOURS": "９時～１８時　無休",
      "PCR": "○",
      "ANTIBODY": "○",
      "LOCATION": "35.5508912468935, 139.7889828553355"
    },
    {
      "NAME": "ウエルシア薬局大田上池台店",
      "DISTRICT": "大田区",
      "ADDRESS": "東京都大田区上池台四丁目２１番７号",
      "HOURS": "月～金　9:00～20:00\n土　　　9:00～19:00\n日　　　9:00～13:00\n　　　　14:00～18:00",
      "PCR": "○",
      "ANTIBODY": "○",
      "LOCATION": "35.59821921845271, 139.70316788417162"
    },
    {
      "NAME": "ウエルシア薬局大田西六郷店",
      "DISTRICT": "大田区",
      "ADDRESS": "東京都大田区西六郷４－３６－８",
      "HOURS": "月～土　9:00～19:30",
      "PCR": "○",
      "ANTIBODY": "○",
      "LOCATION": "35.54452147377906, 139.70350331115927"
    },
    {
      "NAME": "ウエルシア薬局大田大森西店",
      "DISTRICT": "大田区",
      "ADDRESS": "東京都大田区大森西五丁目２５番２１号",
      "HOURS": "月～土　9:00～14:00\n　　　　15:00～19:00",
      "PCR": "○",
      "ANTIBODY": "○",
      "LOCATION": "35.569689838126585, 139.7274794571823"
    },
    {
      "NAME": "ウエルシア薬局久が原駅前店",
      "DISTRICT": "大田区",
      "ADDRESS": "東京都大田区東嶺町30番12号　久が原ビル １階",
      "HOURS": "月～土　9:00～13：30\n　　　　14:30～19:00",
      "PCR": "○",
      "ANTIBODY": "○",
      "LOCATION": "35.580213250847606, 139.68498642650096"
    },
    {
      "NAME": "ウエルシア薬局大田萩中店",
      "DISTRICT": "大田区",
      "ADDRESS": "東京都大田区萩中１－７－１",
      "HOURS": "毎日　　9:00～20:00",
      "PCR": "○",
      "ANTIBODY": "○",
      "LOCATION": "35.55166737386197, 139.72872713999465"
    },
    {
      "NAME": "ウエルシア薬局大田萩中2号店",
      "DISTRICT": "大田区",
      "ADDRESS": "東京都大田区萩中三丁目14番20号　1階",
      "HOURS": "月～土　9:00～14:00\n　　　　15:00～19:00",
      "PCR": "○",
      "ANTIBODY": "○",
      "LOCATION": "35.55152418500002, 139.73376088417075"
    },
    {
      "NAME": "医療法人社団　祐真会　\nマチノマ大森内科クリニック\t",
      "DISTRICT": "大田区",
      "ADDRESS": "東京都大田区大森西3-1-38　マチノマ大森3F　",
      "HOURS": "月曜日～日曜日　9:00～18:00　無休",
      "PCR": "○",
      "ANTIBODY": "○",
      "LOCATION": "35.574677955288905, 139.72606406883042"
    },
    {
      "NAME": "薬局トモズ長原店",
      "DISTRICT": "大田区",
      "ADDRESS": "東京都大田区上池台1-13-6　三葉ﾋﾞﾙ1階",
      "HOURS": "月・火・水・木　9：00～19：00\n土       　               9：00～17：00\n日・祝　休業",
      "PCR": "○",
      "ANTIBODY": "○",
      "LOCATION": "35.602709970339625, 139.6971000265014"
    },
    {
      "NAME": "薬局トモズ蒲田店",
      "DISTRICT": "大田区",
      "ADDRESS": "東京都大田区西蒲田七丁目66番4号　1階",
      "HOURS": "月〜金　9：00～19：00\n土　　　9：00～13：00\n日・祝　休業",
      "PCR": "○",
      "ANTIBODY": "○",
      "LOCATION": "35.56246612377358, 139.7144529111597"
    }
  ]
}