
{"type": "FeatureCollection",
    "crs": {
      "type": "name",
      "properties": { "name": "urn:ogc:def:crs:OGC:1.3:CRS84" }
    },
    "features": 
[
    {
      "NAME": "ウエルシア薬局世田谷砧店",
      "DISTRICT": "世田谷区",
      "ADDRESS": "東京都世田谷区砧２－１４－３０　サミットストア環八通り店２Ｆ",
      "HOURS": "月～金　9:00～19:00\n土　　　9:00～13:00",
      "PCR": "○",
      "ANTIBODY": "○",
      "LOCATION": "35.64405390753857, 139.6182056130081"
    },
    {
      "NAME": "ウエルシア薬局世田谷千歳台店",
      "DISTRICT": "世田谷区",
      "ADDRESS": "東京都世田谷区千歳台５－１６－１８",
      "HOURS": "月～日　9:00～20:00",
      "PCR": "○",
      "ANTIBODY": "○",
      "LOCATION": "35.657403858132916, 139.61194866883227"
    },
    {
      "NAME": "ウエルシア薬局世田谷千歳台二丁目店",
      "DISTRICT": "世田谷区",
      "ADDRESS": "東京都世田谷区千歳台二丁目１４番８号",
      "HOURS": "月～土　9:00～20:00",
      "PCR": "○",
      "ANTIBODY": "○",
      "LOCATION": "35.65111113174749, 139.60869082465615"
    },
    {
      "NAME": "世田谷区　代田区民センター",
      "DISTRICT": "世田谷区",
      "ADDRESS": "東京都世田谷区代田6-34-13",
      "HOURS": "月曜日～日曜日　10:00～16:00\n第1・3月曜日、施設管理上必要な日：休み",
      "PCR": "○",
      "ANTIBODY": "",
      "LOCATION": "35.662980232250746, 139.6605939534916"
    },
    {
      "NAME": "世田谷区　宮坂区民センター",
      "DISTRICT": "世田谷区",
      "ADDRESS": "東京都世田谷区宮坂1丁目24番6号",
      "HOURS": "月曜日～日曜日（祝日含む）10:00～16:00",
      "PCR": "○",
      "ANTIBODY": "",
      "LOCATION": "35.64790490365106, 139.6447847130079"
    },
    {
      "NAME": "薬局トモズ野沢店",
      "DISTRICT": "世田谷区",
      "ADDRESS": "東京都世田谷区野沢二丁目5番20号",
      "HOURS": "月・火・水・金　9：00～19：00\n木・土　               9：00～12：00\n日・祝　休業",
      "PCR": "○",
      "ANTIBODY": "○",
      "LOCATION": "35.632603021525696, 139.67110825533726"
    },
    {
      "NAME": "薬局トモズ上野毛店",
      "DISTRICT": "世田谷区",
      "ADDRESS": "東京都世田谷区中町2-23-10  ",
      "HOURS": "月〜金　       10：00～18：00\n土・日・祝　休業",
      "PCR": "○",
      "ANTIBODY": "○",
      "LOCATION": "35.613909478315, 139.64244613999603"
    },
    {
      "NAME": "薬局トモズ代沢店",
      "DISTRICT": "世田谷区",
      "ADDRESS": "東京都世田谷区代沢5-8-14",
      "HOURS": "月〜金　9:00～18:30\n土　　　9:00～16:00\n日・祝  休業",
      "PCR": "○",
      "ANTIBODY": "○",
      "LOCATION": "35.65744146232874, 139.66792148417306"
    },
    {
      "NAME": "薬局トモズ駒沢店",
      "DISTRICT": "世田谷区",
      "ADDRESS": "東京都世田谷区駒沢四丁目1番1号ノア駒沢B1階",
      "HOURS": "月・火・水・金　9：00～19：00\n土　　　               9：00～13：30\n水・日・祝　休業",
      "PCR": "○",
      "ANTIBODY": "○",
      "LOCATION": "35.625870679773875, 139.65544991116118"
    },
    {
      "NAME": "薬局トモズ駒沢駅前店",
      "DISTRICT": "世田谷区",
      "ADDRESS": "東京都世田谷区上馬4-4-5",
      "HOURS": "月〜土　　　　　9：30～20：00\n日・祝　               10：00～18 ：00",
      "PCR": "○",
      "ANTIBODY": "○",
      "LOCATION": "35.63360355988963, 139.66107638232617"
    },
    {
      "NAME": "薬局トモズ等々力南口店",
      "DISTRICT": "世田谷区 ",
      "ADDRESS": "東京都世田谷区等々力2-32-14",
      "HOURS": "月・火・水・金　9：00～19：30\n水　                      9：00～17：00\n土　                      9：00～14：00\n日・祝　休業",
      "PCR": "○",
      "ANTIBODY": "○",
      "LOCATION": "35.60832552107739, 139.6477318823256"
    },
    {
      "NAME": "薬局トモズ等々力北口店",
      "DISTRICT": "世田谷区",
      "ADDRESS": "東京都世田谷区等々力三丁目5番2号",
      "HOURS": "月・火・木・金　9：00～19：30\n水　                      9：00～18：00\n土　　                  9：00～14：00\n日・祝　休業",
      "PCR": "○",
      "ANTIBODY": "○",
      "LOCATION": "35.60877282034592, 139.6478013553367"
    },
    {
      "NAME": "薬局トモズ上馬店",
      "DISTRICT": "世田谷区",
      "ADDRESS": "東京都世田谷区上馬3-6-11 コンフォリア世田谷上馬 １F",
      "HOURS": "月〜金　9：30～19：00\n土　　　9：30～17：00\n日・祝　休業",
      "PCR": "○",
      "ANTIBODY": "○",
      "LOCATION": "35.63521611667886, 139.66454099766693"
    },
    {
      "NAME": "薬局トモズ成城南口店",
      "DISTRICT": "世田谷区",
      "ADDRESS": "東京都世田谷区成城２－４０－２成城駅前１Ｆ",
      "HOURS": "月・金        9：00～19：00\n火・水・木 9：00～19：30\n土                9：00～16：00\n日・祝　　 休業",
      "PCR": "○",
      "ANTIBODY": "○",
      "LOCATION": "35.63987175016939, 139.59904372650234"
    },
    {
      "NAME": "薬局トモズ下北沢店",
      "DISTRICT": "世田谷区",
      "ADDRESS": "東京都世田谷区代田6-1-28　白洋ビル１階",
      "HOURS": "月・火・木・金　10：00～19：00\n水・土　9：00～17：00\n日・祝　休業",
      "PCR": "○",
      "ANTIBODY": "○",
      "LOCATION": "35.66215298355827, 139.66571398232682"
    }
  ]
}