{"type": "FeatureCollection",
    "crs": {
      "type": "name",
      "properties": { "name": "urn:ogc:def:crs:OGC:1.3:CRS84" }
    },
    "features": 
[
    {
      "NAME": "木下グループ\n新型コロナＰＣＲセンター\n渋谷店",
      "DISTRICT": "渋谷区",
      "ADDRESS": "渋谷区道玄坂２－８－９　市橋ビル",
      "HOURS": "１０時３０分～１８時３０分\n無休",
      "PCR": "○",
      "ANTIBODY": "○",
      "LOCATION": "35.65857039059882, 139.69848566883235"
    },
    {
      "NAME": "ピカパカ\nＰＣＲクイック検査センター\n渋谷店",
      "DISTRICT": "渋谷区",
      "ADDRESS": "渋谷区渋谷２－１９－２０\n宮益坂村瀬ビル１階",
      "HOURS": "９時～１８時　無休",
      "PCR": "○",
      "ANTIBODY": "",
      "LOCATION": "35.65992138794385, 139.70466032650282"
    },
    {
      "NAME": "ウエルシア薬局マンサード代官山店",
      "DISTRICT": "渋谷区",
      "ADDRESS": "東京都渋谷区猿楽町１０－１　マンサード代官山１階",
      "HOURS": "月～金　9:00～20:00\n土日祝　9:00~18:00　　　",
      "PCR": "○",
      "ANTIBODY": "○",
      "LOCATION": "35.65053219762976, 139.70255301116163"
    },
    {
      "NAME": "ウエルシア薬局代官山ディセ店",
      "DISTRICT": "渋谷区",
      "ADDRESS": "東京都渋谷区代官山町１７－６　代官山アドレス・ディセ１Ｆ",
      "HOURS": "月火水金土　9:00～20:00\n木　　　　　10:00～20:00\n日祝　　　　9:30～20:00",
      "PCR": "○",
      "ANTIBODY": "○",
      "LOCATION": "35.64946628148079, 139.70321888417274"
    },
    {
      "NAME": "ウエルシア薬局代々木三丁目店",
      "DISTRICT": "渋谷区",
      "ADDRESS": "東京都渋谷区代々木三丁目３７番５号",
      "HOURS": "月～土　9:00～20:00",
      "PCR": "○",
      "ANTIBODY": "○",
      "LOCATION": "35.681905403556485, 139.6930317995144"
    },
    {
      "NAME": "ファイヤークリニック\n渋谷院",
      "DISTRICT": "渋谷区",
      "ADDRESS": "東京都渋谷区神南１丁目１２−１４\n星ビル 1階",
      "HOURS": "月曜日～日曜日　10:00〜21:00",
      "PCR": "○",
      "ANTIBODY": "",
      "LOCATION": "35.663022815384004, 139.70049772465651"
    },
    {
      "NAME": "薬局トモズ幡ヶ谷店",
      "DISTRICT": "渋谷区",
      "ADDRESS": "東京都渋谷区西原2-31-4",
      "HOURS": "月～金　9：00～19：00\n土　　　9：00～17：00\n日・祝　休業",
      "PCR": "○",
      "ANTIBODY": "○",
      "LOCATION": "35.67623260917368, 139.6771460995142"
    },
    {
      "NAME": "薬局トモズ渋谷並木橋店",
      "DISTRICT": "渋谷区",
      "ADDRESS": "東京都渋谷区渋谷三丁目10-13　渋谷Ｒｻﾝｹｲﾋﾞﾙ1階",
      "HOURS": "月～金　9：00～19：00\n土　　　9：00～14：00\n日・祝　休業",
      "PCR": "○",
      "ANTIBODY": "○",
      "LOCATION": "35.65696274147764, 139.70507392465623"
    },
    {
      "NAME": "にしたんクリニック渋谷院",
      "DISTRICT": "渋谷区",
      "ADDRESS": "東京都渋谷区宇田川町33-1　グランド東京渋谷ビル7階",
      "HOURS": "月～日　10：00～20：00\n祝日含む",
      "PCR": "○",
      "ANTIBODY": "",
      "LOCATION": "35.660838850130745, 139.69741022650277"
    },
    {
      "NAME": "医療法人社団MYメディカル\nMYメディカルクリニック渋谷",
      "DISTRICT": "渋谷区",
      "ADDRESS": "東京都渋谷区宇田川町20-17 NMF渋谷公園通りビル4階",
      "HOURS": "月～金：9:00～12:30、13:30～16:30、\n               18:00～20:15\n土日    ：9:00～12:30、13:30～16:30\n祝日休業",
      "PCR": "○",
      "ANTIBODY": "",
      "LOCATION": "35.66119418544263, 139.70040963999716"
    }
  ]
}