
{"type": "FeatureCollection",
    "crs": {
      "type": "name",
      "properties": { "name": "urn:ogc:def:crs:OGC:1.3:CRS84" }
    },
    "features": 
[
    {
      "NAME": "木下グループ\n新型コロナＰＣＲセンター\n新宿店",
      "DISTRICT": "新宿区",
      "ADDRESS": "新宿区新宿歌舞伎町１－２４－３",
      "HOURS": "８時～１８時３０分　無休",
      "PCR": "○",
      "ANTIBODY": "○",
      "LOCATION": "35.69454495985018, 139.7005974111627"
    },
    {
      "NAME": "Ｊ－ＶＰＤ\n東京ラボラトリー",
      "DISTRICT": "新宿区",
      "ADDRESS": "新宿区愛住町２２\n第３山田ビル１階Ｂ室",
      "HOURS": "月曜日から土曜日：１０時～１８時\n\n日曜日、祝日：１０時～１４時",
      "PCR": "○",
      "ANTIBODY": "○",
      "LOCATION": "35.69186039792092, 139.72026553999788"
    },
    {
      "NAME": "ピカパカ\nＰＣＲクイック検査センター\n新宿店",
      "DISTRICT": "新宿区",
      "ADDRESS": "新宿区新宿３－２３－１\n新宿ターミナルビル１階",
      "HOURS": "９時～１８時　無休",
      "PCR": "○",
      "ANTIBODY": "",
      "LOCATION": "35.69286725966663, 139.70078695533854"
    },
    {
      "NAME": "ウエルシア薬局新宿目白店",
      "DISTRICT": "新宿区",
      "ADDRESS": "東京都新宿区下落合３－１２－２８",
      "HOURS": "月～土　10:00～14:00\n              15:00～19:00",
      "PCR": "○",
      "ANTIBODY": "○",
      "LOCATION": "35.72204063482362, 139.69943525533938"
    },
    {
      "NAME": "ウエルシア薬局西新宿三井ビル店",
      "DISTRICT": "新宿区",
      "ADDRESS": "東京都新宿区西新宿六丁目24番1号",
      "HOURS": "月～金　9:00～19:00\n　土　　9:00～16:00",
      "PCR": "○",
      "ANTIBODY": "○",
      "LOCATION": "35.69513543197237, 139.68899832650354"
    },
    {
      "NAME": "ウエルシア薬局O-GUARD新宿店",
      "DISTRICT": "新宿区",
      "ADDRESS": "東京都新宿区西新宿７丁目１０番１号",
      "HOURS": "毎日　9:00～20:00\n無休",
      "PCR": "○",
      "ANTIBODY": "○",
      "LOCATION": "35.694167560716, 139.6987728976683"
    },
    {
      "NAME": "ウエルシア薬局新宿大久保一丁目店",
      "DISTRICT": "新宿区",
      "ADDRESS": "東京都新宿区大久保一丁目３番２１号",
      "HOURS": "月～土　10:00～14:00\n　　　　15:00～19:00",
      "PCR": "○",
      "ANTIBODY": "○",
      "LOCATION": "35.70049837154309, 139.70758047067952"
    },
    {
      "NAME": "ウエルシア薬局新宿牛込店",
      "DISTRICT": "新宿区",
      "ADDRESS": "東京都新宿区北山伏町１番２号",
      "HOURS": "月～土　9:00～19:00\n　日　　10:00～14:00\n　　　　15:00～18:00",
      "PCR": "○",
      "ANTIBODY": "○",
      "LOCATION": "35.69986189667287, 139.732003684174"
    },
    {
      "NAME": "MDT衛生検査所　新宿受付センター",
      "DISTRICT": "新宿区",
      "ADDRESS": "東京都新宿区新宿4-2-20　MKビル1階",
      "HOURS": "月曜日～日曜日　9：00～20：00   無休　",
      "PCR": "○",
      "ANTIBODY": "",
      "LOCATION": "35.689240544209866, 139.7035034265033"
    },
    {
      "NAME": "ファイヤークリニック　\n新宿院",
      "DISTRICT": "新宿区",
      "ADDRESS": "東京都新宿区新宿3-9-5 ゴールドビル8階",
      "HOURS": "月曜日～日曜日　10:00〜21:00",
      "PCR": "○",
      "ANTIBODY": "",
      "LOCATION": "35.691570634945826, 139.7067003534923"
    },
    {
      "NAME": "ファイヤークリニック　\n新宿唾液採取センター",
      "DISTRICT": "新宿区",
      "ADDRESS": "東京都新宿区新宿6-11-9　１F",
      "HOURS": "月曜日～日曜日　10:00～21:00",
      "PCR": "○",
      "ANTIBODY": "",
      "LOCATION": "35.69453301319788, 139.70831812650354"
    },
    {
      "NAME": "Checkup　Center　よつば",
      "DISTRICT": "新宿区",
      "ADDRESS": "東京都新宿区百人町2丁目5-8科研ビル1階C室",
      "HOURS": "月曜日～日曜日　9:00～22:00",
      "PCR": "○",
      "ANTIBODY": "",
      "LOCATION": "35.703584051446505, 139.70003219766855"
    },
    {
      "NAME": "薬局トモズ高田馬場店",
      "DISTRICT": "新宿区",
      "ADDRESS": "東京都新宿区高田馬場3-12-2　高田馬場OCビル１F",
      "HOURS": "月〜金　9：00～19：30\n土       　9：00～14：30\n日・祝　休業",
      "PCR": "○",
      "ANTIBODY": "○",
      "LOCATION": "35.71355216123279, 139.70122889766876"
    },
    {
      "NAME": "薬局トモズ女子医大前店",
      "DISTRICT": "新宿区",
      "ADDRESS": "東京都新宿区若松町3-2",
      "HOURS": "月〜金　9：00～18：00\n土       　9：00～15：00\n第3土曜日　休業\n日・祝　休業",
      "PCR": "○",
      "ANTIBODY": "○",
      "LOCATION": "35.69875948585884, 139.7189884958221"
    },
    {
      "NAME": "薬局トモズ女子医大前２号店",
      "DISTRICT": "新宿区",
      "ADDRESS": "東京都新宿区若松町3-3 井関ﾋﾞﾙ",
      "HOURS": "月〜金　9：00～18：00\n土       　9：00～15：00\n第3土曜日　休業\n日・祝　休業",
      "PCR": "○",
      "ANTIBODY": "○",
      "LOCATION": "35.69893068833352, 139.71899508417397"
    },
    {
      "NAME": "にしたんクリニック新宿院",
      "DISTRICT": "新宿区",
      "ADDRESS": "東京都新宿区新宿3-17-10　HULIC&New SHINJUKU7階",
      "HOURS": "月～日　10：00～20：00\n祝日含む",
      "PCR": "○",
      "ANTIBODY": "",
      "LOCATION": "35.69223065655293, 139.70274789766827"
    }
  ]
}