
{"type": "FeatureCollection",
    "crs": {
      "type": "name",
      "properties": { "name": "urn:ogc:def:crs:OGC:1.3:CRS84" }
    },
    "features": 
[
    {
      "NAME": "ウエルシア薬局目黒上大崎店",
      "DISTRICT": "品川区",
      "ADDRESS": "東京都品川区上大崎２－１３－３２富田ビル",
      "HOURS": "月～金　9:00～19:00\n土　　　9:00～19:00\n日祝　　10:00～19:00",
      "PCR": "○",
      "ANTIBODY": "○",
      "LOCATION": "35.63461965751797, 139.71791165349106"
    },
    {
      "NAME": "薬局トモズ中延店",
      "DISTRICT": "品川区",
      "ADDRESS": "東京都品川区東中延2-7-16",
      "HOURS": "月・火・木・金　9：00～20：00\n水　9：00～19：00\n土　9：00～14：00\n日・祝　休業",
      "PCR": "○",
      "ANTIBODY": "○",
      "LOCATION": "35.60741787375184, 139.71242774184225"
    },
    {
      "NAME": "薬局トモズパークシティ武蔵小山ザモール店",
      "DISTRICT": "品川区",
      "ADDRESS": "東京都品川区小山3-15-1",
      "HOURS": " \n月〜金           10：00～19：00\n土・日・祝　10：00～18：00\n",
      "PCR": "○",
      "ANTIBODY": "○",
      "LOCATION": "35.620158730382514, 139.7041708976667"
    },
    {
      "NAME": "薬局トモズ五反田店",
      "DISTRICT": "品川区",
      "ADDRESS": "東京都品川区西五反田2-28-5",
      "HOURS": "月〜金9：30～19：30\n土 10：00～17：00\n日・祝　休業",
      "PCR": "○",
      "ANTIBODY": "○",
      "LOCATION": "35.624761098896215, 139.7209576130074"
    }
  ]
}