{
    "type": "FeatureCollection",
    "crs": {
      "type": "name",
      "properties": { "name": "urn:ogc:def:crs:OGC:1.3:CRS84" }
    },
    "features":
[
    {
      "NAME": "ウエルシア薬局墨田八広店",
      "DISTRICT": "墨田区",
      "ADDRESS": "東京都墨田区八広１－３０－１０",
      "HOURS": "月～土　9:00～20:00",
      "PCR": "○",
      "ANTIBODY": "○",
      "LOCATION": "35.71945804965837, 139.82488025533914"
    },
    {
      "NAME": "ベイ薬局 本所店",
      "DISTRICT": "墨田区",
      "ADDRESS": "東京都墨田区本所4-14-5",
      "HOURS": "月･火・水・金　9：00～13：00／14：30～18：00\n土    　9：00～13：00\n木・日・祝 休業",
      "PCR": "○",
      "ANTIBODY": "○",
      "LOCATION": "35.703988750473464, 139.80598835718533"
    },
    {
      "NAME": "薬局トモズ両国店",
      "DISTRICT": "墨田区",
      "ADDRESS": "東京都墨田区横網1-10-12　高安ビル",
      "HOURS": "月～金　9：00～18：00\n土　       9：00～13：00\n日・祝　休業",
      "PCR": "○",
      "ANTIBODY": "○",
      "LOCATION": "35.69880067293019, 139.79521688232765"
    },
    {
      "NAME": "薬局トモズ 向島店",
      "DISTRICT": "墨田区",
      "ADDRESS": "東京都墨田区八広1-7-1",
      "HOURS": "月・火・水・金　9：00～19：00\n木　9：00～17：00\n土　10：00～14：00\n日・祝　休業",
      "PCR": "○",
      "ANTIBODY": "○",
      "LOCATION": "35.721520018692246, 139.82202178417464"
    },
    {
      "NAME": "薬局トモズ 押上店",
      "DISTRICT": "墨田区",
      "ADDRESS": "東京都墨田区押上1-11-4レガーレ伊勢元１階",
      "HOURS": "月・火・水・金　9：00～13：00／15：00～19：30\n土   　9：00～12：00\n木・日・祝 休業",
      "PCR": "○",
      "ANTIBODY": "○",
      "LOCATION": "35.71051600742725, 139.81423145349268"
    }
  ]
}