{
    "type": "FeatureCollection",
    "crs": {
      "type": "name",
      "properties": { "name": "urn:ogc:def:crs:OGC:1.3:CRS84" }
    },
    "features":
[
    {
      "NAME": "木下グループ\n新型コロナＰＣＲセンター\n池袋東口店",
      "DISTRICT": "豊島区",
      "ADDRESS": "豊島区東池袋１－２２－７",
      "HOURS": "８時～１９時　無休",
      "PCR": "○",
      "ANTIBODY": "○",
      "LOCATION": "35.729903250300154, 139.7154837841747"
    },
    {
      "NAME": "ピカパカ\nＰＣＲクイック検査センター\n池袋店",
      "DISTRICT": "豊島区",
      "ADDRESS": "豊島区西池袋１－１５－８\n三仲ビル２階",
      "HOURS": "９時～１８時　無休",
      "PCR": "○",
      "ANTIBODY": "",
      "LOCATION": "35.730704239352086, 139.70958105349308"
    },
    {
      "NAME": "ピカパカ\nＰＣＲクイック検査センター\nサンシャイン旅工房店",
      "DISTRICT": "豊島区",
      "ADDRESS": "東京都豊島区東池袋3-1-1 サンシャイン60 46階",
      "HOURS": "９時３０分～１８時　土日祝日　休み",
      "PCR": "○",
      "ANTIBODY": "",
      "LOCATION": "35.72949126061589, 139.71814390448492"
    },
    {
      "NAME": "ウエルシア薬局池袋店",
      "DISTRICT": "豊島区",
      "ADDRESS": "東京都豊島区南池袋１‐２８‐２　ＪＲ東日本池袋駅構内Ｂ１Ｆ",
      "HOURS": "毎日　　9:00～20:00",
      "PCR": "○",
      "ANTIBODY": "○",
      "LOCATION": "35.73067714072356, 139.71182967008485"
    },
    {
      "NAME": "MDT衛生検査所　池袋受付センター",
      "DISTRICT": "豊島区",
      "ADDRESS": "東京都豊島区西池袋3-25-8　相馬屋ビル1階",
      "HOURS": "月曜日～日曜日　9：00～20：00　無休",
      "PCR": "○",
      "ANTIBODY": "",
      "LOCATION": "35.73040095872566, 139.70740845349303"
    }
  ]
}