
{"type": "FeatureCollection",
  "crs": {
    "type": "name",
    "properties": { "name": "urn:ogc:def:crs:OGC:1.3:CRS84" }
  },
  "features": 
  [
    {
      "NAME": "木下グループ\n新型コロナＰＣＲセンター\n秋葉原店",
      "DISTRICT": "千代田区",
      "ADDRESS": "千代田区外神田１－１４－７\n秋葉原野村ビル",
      "HOURS": "１０時～１８時　無休",
      "PCR": "○",
      "ANTIBODY": "○",
      "LOCATION": "35.698472899253346, 139.77179086883325"
    },
    {
      "NAME": "木下グループ\n新型コロナＰＣＲセンター\n新橋店",
      "DISTRICT": "港区",
      "ADDRESS": "港区新橋２－１６－１\nニュー新橋ビル１階西側角",
      "HOURS": "８時～１８時\n奇数月第２日曜定休",
      "PCR": "○",
      "ANTIBODY": "○",
      "LOCATION": "35.6663822408535, 139.75712448601965"
    },
    {
      "NAME": "木下グループ\n新型コロナＰＣＲセンター\n浜松町店",
      "DISTRICT": "港区",
      "ADDRESS": "港区芝大門１－１６－８",
      "HOURS": "１０時～１８時　無休",
      "PCR": "○",
      "ANTIBODY": "○",
      "LOCATION": "35.65712592380333, 139.75431441116194"
    },
    {
      "NAME": "木下グループ\n新型コロナＰＣＲセンター\n新宿店",
      "DISTRICT": "新宿区",
      "ADDRESS": "新宿区新宿歌舞伎町１－２４－３",
      "HOURS": "８時～１８時３０分　無休",
      "PCR": "○",
      "ANTIBODY": "○",
      "LOCATION": "35.69454495985018, 139.7005974111627"
    },
    {
      "NAME": "木下グループ\n新型コロナＰＣＲセンター\n渋谷店",
      "DISTRICT": "渋谷区",
      "ADDRESS": "渋谷区道玄坂２－８－９　市橋ビル",
      "HOURS": "１０時３０分～１８時３０分\n無休",
      "PCR": "○",
      "ANTIBODY": "○",
      "LOCATION": "35.65857039059882, 139.69848566883235"
    },
    {
      "NAME": "木下グループ\n新型コロナＰＣＲセンター\n池袋東口店",
      "DISTRICT": "豊島区",
      "ADDRESS": "豊島区東池袋１－２２－７",
      "HOURS": "８時～１９時　無休",
      "PCR": "○",
      "ANTIBODY": "○",
      "LOCATION": "35.729903250300154, 139.7154837841747"
    },
    {
      "NAME": "木下グループ\n新型コロナＰＣＲセンター\n羽田空港第１ターミナル店",
      "DISTRICT": "大田区",
      "ADDRESS": "大田区羽田空港３－３－２",
      "HOURS": "７時～２０時　無休",
      "PCR": "○",
      "ANTIBODY": "○",
      "LOCATION": "35.557901729335384, 139.7839846111596"
    },
    {
      "NAME": "木下グループ\n新型コロナＰＣＲセンター\n羽田空港第２ターミナル店",
      "DISTRICT": "大田区",
      "ADDRESS": "大田区羽田空港３－４－２",
      "HOURS": "９時～１８時　無休",
      "PCR": "○",
      "ANTIBODY": "○",
      "LOCATION": "35.5508912468935, 139.7889828553355"
    },
    {
      "NAME": "木下グループ\n新型コロナＰＣＲセンター\n吉祥寺店",
      "DISTRICT": "武蔵野市",
      "ADDRESS": "武蔵野市吉祥寺本町１－８－４\nコスモビル１階",
      "HOURS": "１０時～１７時　第３火曜定休",
      "PCR": "○",
      "ANTIBODY": "○",
      "LOCATION": "35.70451420026355, 139.57896009766853"
    },
    {
      "NAME": "Ｊ－ＶＰＤ\n東京ラボラトリー",
      "DISTRICT": "新宿区",
      "ADDRESS": "新宿区愛住町２２\n第３山田ビル１階Ｂ室",
      "HOURS": "月曜日から土曜日：１０時～１８時\n\n日曜日、祝日：１０時～１４時",
      "PCR": "○",
      "ANTIBODY": "○",
      "LOCATION": "35.69186039792092, 139.72026553999788"
    },
    {
      "NAME": "ＭＳＪ\n八王子ＰＣＲ検査スポット",
      "DISTRICT": "八王子市",
      "ADDRESS": "東京都八王子市東町８－９",
      "HOURS": "８時～１９時　年中無休",
      "PCR": "○",
      "ANTIBODY": "",
      "LOCATION": "35.65843777720723, 139.33921277067867"
    },
    {
      "NAME": "ＭＳＪ\n立川ＰＣＲ検査スポット",
      "DISTRICT": "立川市",
      "ADDRESS": "東京都立川市曙町２－３－４",
      "HOURS": "８時～１９時　年中無休",
      "PCR": "○",
      "ANTIBODY": "",
      "LOCATION": "35.698846511412924, 139.41130302650362"
    },
    {
      "NAME": "ピカパカ\nＰＣＲクイック検査センター\n渋谷店",
      "DISTRICT": "渋谷区",
      "ADDRESS": "渋谷区渋谷２－１９－２０\n宮益坂村瀬ビル１階",
      "HOURS": "９時～１８時　無休",
      "PCR": "○",
      "ANTIBODY": "",
      "LOCATION": "35.65992138794385, 139.70466032650282"
    },
    {
      "NAME": "ピカパカ\nＰＣＲクイック検査センター\n新宿店",
      "DISTRICT": "新宿区",
      "ADDRESS": "新宿区新宿３－２３－１\n新宿ターミナルビル１階",
      "HOURS": "９時～１８時　無休",
      "PCR": "○",
      "ANTIBODY": "",
      "LOCATION": "35.69286725966663, 139.70078695533854"
    },
    {
      "NAME": "ピカパカ\nＰＣＲクイック検査センター\n池袋店",
      "DISTRICT": "豊島区",
      "ADDRESS": "豊島区西池袋１－１５－８\n三仲ビル２階",
      "HOURS": "９時～１８時　無休",
      "PCR": "○",
      "ANTIBODY": "",
      "LOCATION": "35.730704239352086, 139.70958105349308"
    },
    {
      "NAME": "ピカパカ\nＰＣＲクイック検査センター\n新橋店",
      "DISTRICT": "港区",
      "ADDRESS": "港区新橋１－１７－１\n内田ビル１階",
      "HOURS": "９時～１８時　無休",
      "PCR": "○",
      "ANTIBODY": "",
      "LOCATION": "35.66871955138747, 139.75682573815104"
    },
    {
      "NAME": "ピカパカ\nＰＣＲクイック検査センター\nサンシャイン旅工房店",
      "DISTRICT": "豊島区",
      "ADDRESS": "東京都豊島区東池袋3-1-1 サンシャイン60 46階",
      "HOURS": "９時３０分～１８時　土日祝日　休み",
      "PCR": "○",
      "ANTIBODY": "",
      "LOCATION": "35.72949126061589, 139.71814390448492"
    },
    {
      "NAME": "ウエルシア薬局秋葉原駅前店",
      "DISTRICT": "千代田区",
      "ADDRESS": "東京都千代田区外神田1-18-19 BiTO AKIBA 1階",
      "HOURS": "毎日　9:00～20:00",
      "PCR": "○",
      "ANTIBODY": "○",
      "LOCATION": "35.6989258241028, 139.7722337823276"
    },
    {
      "NAME": "ウエルシア薬局千代田御茶ノ水店",
      "DISTRICT": "千代田区",
      "ADDRESS": "東京都千代田区外神田２－２－１５　ウエルシアビル１Ｆ",
      "HOURS": "月～土　9:00～14:00、15:00～19:00",
      "PCR": "○",
      "ANTIBODY": "○",
      "LOCATION": "35.699629660953896, 139.7677655804812"
    },
    {
      "NAME": "ウエルシア薬局千代田麹町店",
      "DISTRICT": "千代田区",
      "ADDRESS": "東京都千代田区麹町３－４トラスティ麹町ビル１Ｆ",
      "HOURS": "月～金　9:00～19:00\n土　　　10:00～14:00",
      "PCR": "○",
      "ANTIBODY": "○",
      "LOCATION": "35.68508875349833, 139.73762663105074"
    },
    {
      "NAME": "ウエルシア薬局神田小川町2号店",
      "DISTRICT": "千代田区",
      "ADDRESS": "東京都千代田区神田小川町一丁目１番地",
      "HOURS": "月～金　9:00～14:00、15:00～19:00\n土　　　10:00～14:00",
      "PCR": "○",
      "ANTIBODY": "○",
      "LOCATION": "35.69491957227692, 139.76680383999795"
    },
    {
      "NAME": "ウエルシア薬局神田小川町店",
      "DISTRICT": "千代田区",
      "ADDRESS": "東京都千代田区神田小川町一丁目２番地",
      "HOURS": "月～金　9:00～2:00\n土　　　9:00～13:00、14:00～19:00\n日　11:00～16:00",
      "PCR": "○",
      "ANTIBODY": "○",
      "LOCATION": "35.69479737257074, 139.76371117067944"
    },
    {
      "NAME": "ウエルシア薬局東京スクエアガーデン店",
      "DISTRICT": "中央区",
      "ADDRESS": "東京都中央区京橋３－１－１",
      "HOURS": "月～土　　9:00～19:00",
      "PCR": "○",
      "ANTIBODY": "○",
      "LOCATION": "35.67627418644263, 139.76840325533826"
    },
    {
      "NAME": "ウエルシア薬局日本橋１号店",
      "DISTRICT": "中央区",
      "ADDRESS": "東京都中央区日本橋２－１－１０",
      "HOURS": "月～土　9:00～20:00\n   日祝　10:00～13:00\n              14:00~19:00",
      "PCR": "○",
      "ANTIBODY": "○",
      "LOCATION": "35.682497385013065, 139.77311278417363"
    },
    {
      "NAME": "ウエルシア薬局日本橋駅前店",
      "DISTRICT": "中央区",
      "ADDRESS": "東京都中央区日本橋２丁目１番１０号　柳屋ビル地下２階",
      "HOURS": "月～金　9:00~18:30\n　土　　9:30～14:00",
      "PCR": "○",
      "ANTIBODY": "○",
      "LOCATION": "35.682591872641595, 139.77314758417359"
    },
    {
      "NAME": "ウエルシア薬局南麻布店",
      "DISTRICT": "港区",
      "ADDRESS": "東京都港区南麻布五丁目1番11号　１F",
      "HOURS": "月～土　9:00～14:00\n　　　　15:00～19:00",
      "PCR": "○",
      "ANTIBODY": "○",
      "LOCATION": "35.65511332082589, 139.72267744184333"
    },
    {
      "NAME": "ウエルシア薬局麻布十番店",
      "DISTRICT": "港区",
      "ADDRESS": "東京都港区麻布十番２－９－２",
      "HOURS": "月～土　9:00～20:00\n日　　　9:00～13:00",
      "PCR": "○",
      "ANTIBODY": "○",
      "LOCATION": "35.65521926628952, 139.73451902715396"
    },
    {
      "NAME": "ウエルシア薬局新宿目白店",
      "DISTRICT": "新宿区",
      "ADDRESS": "東京都新宿区下落合３－１２－２８",
      "HOURS": "月～土　10:00～14:00\n              15:00～19:00",
      "PCR": "○",
      "ANTIBODY": "○",
      "LOCATION": "35.72204063482362, 139.69943525533938"
    },
    {
      "NAME": "ウエルシア薬局西新宿三井ビル店",
      "DISTRICT": "新宿区",
      "ADDRESS": "東京都新宿区西新宿六丁目24番1号",
      "HOURS": "月～金　9:00～19:00\n　土　　9:00～16:00",
      "PCR": "○",
      "ANTIBODY": "○",
      "LOCATION": "35.69513543197237, 139.68899832650354"
    },
    {
      "NAME": "ウエルシア薬局O-GUARD新宿店",
      "DISTRICT": "新宿区",
      "ADDRESS": "東京都新宿区西新宿７丁目１０番１号",
      "HOURS": "毎日　9:00～20:00\n無休",
      "PCR": "○",
      "ANTIBODY": "○",
      "LOCATION": "35.694167560716, 139.6987728976683"
    },
    {
      "NAME": "ウエルシア薬局新宿大久保一丁目店",
      "DISTRICT": "新宿区",
      "ADDRESS": "東京都新宿区大久保一丁目３番２１号",
      "HOURS": "月～土　10:00～14:00\n　　　　15:00～19:00",
      "PCR": "○",
      "ANTIBODY": "○",
      "LOCATION": "35.70049837154309, 139.70758047067952"
    },
    {
      "NAME": "ウエルシア薬局新宿牛込店",
      "DISTRICT": "新宿区",
      "ADDRESS": "東京都新宿区北山伏町１番２号",
      "HOURS": "月～土　9:00～19:00\n　日　　10:00～14:00\n　　　　15:00～18:00",
      "PCR": "○",
      "ANTIBODY": "○",
      "LOCATION": "35.69986189667287, 139.732003684174"
    },
    {
      "NAME": "ウエルシア薬局茗荷谷駅前店",
      "DISTRICT": "文京区",
      "ADDRESS": "東京都文京区小日向４－６－１８アマーレ茗荷谷１・２Ｆ",
      "HOURS": "月～土　9:00～20:00\n　日　　9:00～13:00\n              14:00～18:00",
      "PCR": "○",
      "ANTIBODY": "○",
      "LOCATION": "35.71743918422634, 139.73669148630574"
    },
    {
      "NAME": "ウエルシア薬局文京グリーンコート店",
      "DISTRICT": "文京区",
      "ADDRESS": "東京都文京区本駒込２－２８－１０　イーストウイングＢ１Ｆ",
      "HOURS": "月～土　9:00～20:00\n日祝　　10:00~19:00　　",
      "PCR": "○",
      "ANTIBODY": "○",
      "LOCATION": "35.73030209660532, 139.74801351116346"
    },
    {
      "NAME": "ウエルシア台東入谷調剤薬局",
      "DISTRICT": "台東区",
      "ADDRESS": "東京都台東区北上野２－３０－７　ファイン北上野",
      "HOURS": "月～金　9:00～19:00\n土　　　10:00～13：30、14：30～17:00",
      "PCR": "○",
      "ANTIBODY": "○",
      "LOCATION": "35.71969858096113, 139.78421273815204"
    },
    {
      "NAME": "ウエルシア薬局墨田八広店",
      "DISTRICT": "墨田区",
      "ADDRESS": "東京都墨田区八広１－３０－１０",
      "HOURS": "月～土　9:00～20:00",
      "PCR": "○",
      "ANTIBODY": "○",
      "LOCATION": "35.71945804965837, 139.82488025533914"
    },
    {
      "NAME": "ウエルシア薬局ダイエー東大島店",
      "DISTRICT": "江東区",
      "ADDRESS": "東京都江東区大島７－３８－３０",
      "HOURS": "月～土　9:00～19:00",
      "PCR": "○",
      "ANTIBODY": "○",
      "LOCATION": "35.691025040505615, 139.84254628232742"
    },
    {
      "NAME": "ウエルシア薬局江東平野店",
      "DISTRICT": "江東区",
      "ADDRESS": "東京都江東区平野３‐７‐１９",
      "HOURS": "月～金　9:00～20:00\n土　　　9:00～18:00\n日　　　9:00～13:00",
      "PCR": "○",
      "ANTIBODY": "○",
      "LOCATION": "35.67829209713652, 139.80574668417364"
    },
    {
      "NAME": "ウエルシア薬局目黒上大崎店",
      "DISTRICT": "品川区",
      "ADDRESS": "東京都品川区上大崎２－１３－３２富田ビル",
      "HOURS": "月～金　9:00～19:00\n土　　　9:00～19:00\n日祝　　10:00～19:00",
      "PCR": "○",
      "ANTIBODY": "○",
      "LOCATION": "35.63461965751797, 139.71791165349106"
    },
    {
      "NAME": "ウエルシア薬局自由が丘店",
      "DISTRICT": "目黒区",
      "ADDRESS": "東京都目黒区自由が丘２－９－５　大坪ビル",
      "HOURS": "月～土　9:00～20:00\n日祝　　9:00～19:00",
      "PCR": "○",
      "ANTIBODY": "○",
      "LOCATION": "35.60941952283435, 139.66820254184228"
    },
    {
      "NAME": "ウエルシア薬局上目黒２丁目店",
      "DISTRICT": "目黒区",
      "ADDRESS": "東京都目黒区上目黒２－４２－８ホーライコーポ",
      "HOURS": "月～金　9:00～14:00\n　　　　15:00～19:00\n土　　　10:00～14:00",
      "PCR": "○",
      "ANTIBODY": "○",
      "LOCATION": "35.640885425344315, 139.69464428232644"
    },
    {
      "NAME": "ウエルシア薬局目黒青葉台店",
      "DISTRICT": "目黒区",
      "ADDRESS": "東京都目黒区青葉台一丁目29番6号    ライオンズマンション中目黒　1階",
      "HOURS": "月～土　9:00～13：30\n　　　　14:30～19:00\n日　　　9:00～14:30",
      "PCR": "○",
      "ANTIBODY": "○",
      "LOCATION": "35.646924450530754, 139.69598819582086"
    },
    {
      "NAME": "ウエルシア薬局大田上池台店",
      "DISTRICT": "大田区",
      "ADDRESS": "東京都大田区上池台四丁目２１番７号",
      "HOURS": "月～金　9:00～20:00\n土　　　9:00～19:00\n日　　　9:00～13:00\n　　　　14:00～18:00",
      "PCR": "○",
      "ANTIBODY": "○",
      "LOCATION": "35.59821921845271, 139.70316788417162"
    },
    {
      "NAME": "ウエルシア薬局大田西六郷店",
      "DISTRICT": "大田区",
      "ADDRESS": "東京都大田区西六郷４－３６－８",
      "HOURS": "月～土　9:00～19:30",
      "PCR": "○",
      "ANTIBODY": "○",
      "LOCATION": "35.54452147377906, 139.70350331115927"
    },
    {
      "NAME": "ウエルシア薬局大田大森西店",
      "DISTRICT": "大田区",
      "ADDRESS": "東京都大田区大森西五丁目２５番２１号",
      "HOURS": "月～土　9:00～14:00\n　　　　15:00～19:00",
      "PCR": "○",
      "ANTIBODY": "○",
      "LOCATION": "35.569689838126585, 139.7274794571823"
    },
    {
      "NAME": "ウエルシア薬局久が原駅前店",
      "DISTRICT": "大田区",
      "ADDRESS": "東京都大田区東嶺町30番12号　久が原ビル １階",
      "HOURS": "月～土　9:00～13：30\n　　　　14:30～19:00",
      "PCR": "○",
      "ANTIBODY": "○",
      "LOCATION": "35.580213250847606, 139.68498642650096"
    },
    {
      "NAME": "ウエルシア薬局大田萩中店",
      "DISTRICT": "大田区",
      "ADDRESS": "東京都大田区萩中１－７－１",
      "HOURS": "毎日　　9:00～20:00",
      "PCR": "○",
      "ANTIBODY": "○",
      "LOCATION": "35.55166737386197, 139.72872713999465"
    },
    {
      "NAME": "ウエルシア薬局大田萩中2号店",
      "DISTRICT": "大田区",
      "ADDRESS": "東京都大田区萩中三丁目14番20号　1階",
      "HOURS": "月～土　9:00～14:00\n　　　　15:00～19:00",
      "PCR": "○",
      "ANTIBODY": "○",
      "LOCATION": "35.55152418500002, 139.73376088417075"
    },
    {
      "NAME": "ウエルシア薬局世田谷砧店",
      "DISTRICT": "世田谷区",
      "ADDRESS": "東京都世田谷区砧２－１４－３０　サミットストア環八通り店２Ｆ",
      "HOURS": "月～金　9:00～19:00\n土　　　9:00～13:00",
      "PCR": "○",
      "ANTIBODY": "○",
      "LOCATION": "35.64405390753857, 139.6182056130081"
    },
    {
      "NAME": "ウエルシア薬局世田谷千歳台店",
      "DISTRICT": "世田谷区",
      "ADDRESS": "東京都世田谷区千歳台５－１６－１８",
      "HOURS": "月～日　9:00～20:00",
      "PCR": "○",
      "ANTIBODY": "○",
      "LOCATION": "35.657403858132916, 139.61194866883227"
    },
    {
      "NAME": "ウエルシア薬局世田谷千歳台二丁目店",
      "DISTRICT": "世田谷区",
      "ADDRESS": "東京都世田谷区千歳台二丁目１４番８号",
      "HOURS": "月～土　9:00～20:00",
      "PCR": "○",
      "ANTIBODY": "○",
      "LOCATION": "35.65111113174749, 139.60869082465615"
    },
    {
      "NAME": "ウエルシア薬局マンサード代官山店",
      "DISTRICT": "渋谷区",
      "ADDRESS": "東京都渋谷区猿楽町１０－１　マンサード代官山１階",
      "HOURS": "月～金　9:00～20:00\n土日祝　9:00~18:00　　　",
      "PCR": "○",
      "ANTIBODY": "○",
      "LOCATION": "35.65053219762976, 139.70255301116163"
    },
    {
      "NAME": "ウエルシア薬局代官山ディセ店",
      "DISTRICT": "渋谷区",
      "ADDRESS": "東京都渋谷区代官山町１７－６　代官山アドレス・ディセ１Ｆ",
      "HOURS": "月火水金土　9:00～20:00\n木　　　　　10:00～20:00\n日祝　　　　9:30～20:00",
      "PCR": "○",
      "ANTIBODY": "○",
      "LOCATION": "35.64946628148079, 139.70321888417274"
    },
    {
      "NAME": "ウエルシア薬局代々木三丁目店",
      "DISTRICT": "渋谷区",
      "ADDRESS": "東京都渋谷区代々木三丁目３７番５号",
      "HOURS": "月～土　9:00～20:00",
      "PCR": "○",
      "ANTIBODY": "○",
      "LOCATION": "35.681905403556485, 139.6930317995144"
    },
    {
      "NAME": "ウエルシア薬局中野都立家政店",
      "DISTRICT": "中野区",
      "ADDRESS": "東京都中野区鷺ノ宮１－２８－９モンフレール１Ｆ",
      "HOURS": "月～金　9:00～19:00\n土　　　9:00～15:00",
      "PCR": "○",
      "ANTIBODY": "○",
      "LOCATION": "35.72407378196997, 139.64401671300976"
    },
    {
      "NAME": "ウエルシア中野さぎの宮調剤薬局",
      "DISTRICT": "中野区",
      "ADDRESS": "東京都中野区鷺宮３－１９－７　田中ビル１階２階",
      "HOURS": "月～金　9:00～14:00\n　　　　15:00～19:00\n土　　　9:00～14:00",
      "PCR": "○",
      "ANTIBODY": "○",
      "LOCATION": "35.72373794353349, 139.63824703999845"
    },
    {
      "NAME": "ウエルシア薬局中野新橋店",
      "DISTRICT": "中野区",
      "ADDRESS": "東京都中野区弥生町２－４－９ツナシマ第三ビル1Ｆ・Ｂ1",
      "HOURS": "月～金　9:00～14:00\n　　　　15:00～19:00\n土　　　9:00～13:00",
      "PCR": "○",
      "ANTIBODY": "○",
      "LOCATION": "35.69151134961658, 139.67680535973832"
    },
    {
      "NAME": "ウエルシア薬局中野富士見町駅前店",
      "DISTRICT": "中野区",
      "ADDRESS": "東京都中野区弥生町５－２６－９",
      "HOURS": "月～金　9:00～19:00\n土　　　9:00～13:00",
      "PCR": "○",
      "ANTIBODY": "○",
      "LOCATION": "35.69121148119029, 139.66795350931633"
    },
    {
      "NAME": "ウエルシア薬局杉並阿佐谷南店",
      "DISTRICT": "杉並区",
      "ADDRESS": "東京都杉並区阿佐谷南二丁目４１番１号",
      "HOURS": "月～土　10:00～13:30\n　　　　14:30～20:00",
      "PCR": "○",
      "ANTIBODY": "○",
      "LOCATION": "35.705301383778895, 139.63905976883345"
    },
    {
      "NAME": "ウエルシア薬局西永福店",
      "DISTRICT": "杉並区",
      "ADDRESS": "東京都杉並区永福３－５５－４　戸谷ビル",
      "HOURS": "月～土　9:00～19:00",
      "PCR": "○",
      "ANTIBODY": "○",
      "LOCATION": "35.679261574937904, 139.63637249766802"
    },
    {
      "NAME": "ウエルシア薬局永福店",
      "DISTRICT": "杉並区",
      "ADDRESS": "東京都杉並区永福４－１－４",
      "HOURS": "月～土　9:00～19:00",
      "PCR": "○",
      "ANTIBODY": "○",
      "LOCATION": "35.67668689389873, 139.64344725533834"
    },
    {
      "NAME": "ウエルシア薬局杉並松ノ木店",
      "DISTRICT": "杉並区",
      "ADDRESS": "東京都杉並区松ノ木２－４１－７",
      "HOURS": "月～土　9:00～20:00\n日祝　　10:00～13:00\n　　　　14:00～19:00",
      "PCR": "○",
      "ANTIBODY": "○",
      "LOCATION": "35.69213829743512, 139.64169465533868"
    },
    {
      "NAME": "ウエルシア薬局池袋店",
      "DISTRICT": "豊島区",
      "ADDRESS": "東京都豊島区南池袋１‐２８‐２　ＪＲ東日本池袋駅構内Ｂ１Ｆ",
      "HOURS": "毎日　　9:00～20:00",
      "PCR": "○",
      "ANTIBODY": "○",
      "LOCATION": "35.73067714072356, 139.71182967008485"
    },
    {
      "NAME": "ウエルシア薬局西が丘店",
      "DISTRICT": "北区",
      "ADDRESS": "東京都北区西が丘１－５－１１　ハイツトーワ１０１",
      "HOURS": "月～金　9:00～18:30\n   土　　9:00～13:00",
      "PCR": "○",
      "ANTIBODY": "○",
      "LOCATION": "35.77192328699665, 139.71508176883475"
    },
    {
      "NAME": "ウエルシア薬局赤羽台店",
      "DISTRICT": "北区",
      "ADDRESS": "東京都北区赤羽台１－５－１８",
      "HOURS": "月～金　9:00～20:00\n土　　9:00～19:00\n日      10:00～13:00\n              14:00~19:00",
      "PCR": "○",
      "ANTIBODY": "○",
      "LOCATION": "35.77820774263792, 139.71473301301108"
    },
    {
      "NAME": "ウエルシア薬局田端２丁目店",
      "DISTRICT": "北区",
      "ADDRESS": "東京都北区田端２－３－１２サントル動坂１Ｆ",
      "HOURS": "月～土　9:00～13:30\n              14:30～19:00",
      "PCR": "○",
      "ANTIBODY": "○",
      "LOCATION": "35.734159932927014, 139.75713898232829"
    },
    {
      "NAME": "ウエルシア薬局浮間店",
      "DISTRICT": "北区",
      "ADDRESS": "東京都北区浮間２－１２－２４",
      "HOURS": "毎日　9:00～20:00\n",
      "PCR": "○",
      "ANTIBODY": "○",
      "LOCATION": "35.79116392135525, 139.6973197958241"
    },
    {
      "NAME": "ウエルシア薬局三ノ輪橋駅前店",
      "DISTRICT": "荒川区",
      "ADDRESS": "東京都荒川区南千住１－１３－２２三ノ輪橋駅前ビル",
      "HOURS": "月～土　9:00～19:00",
      "PCR": "○",
      "ANTIBODY": "○",
      "LOCATION": "35.732454791190435, 139.79113205533952"
    },
    {
      "NAME": "ウエルシア薬局板橋新高島平店",
      "DISTRICT": "板橋区",
      "ADDRESS": "東京都板橋区高島平７－１３－４",
      "HOURS": "月～土　9:00～14:00\n　　　　15:00～19:00",
      "PCR": "○",
      "ANTIBODY": "○",
      "LOCATION": "35.790731047305485, 139.6541010976705"
    },
    {
      "NAME": "ウエルシア薬局板橋四葉店",
      "DISTRICT": "板橋区",
      "ADDRESS": "東京都板橋区四葉２－１０－１",
      "HOURS": "月～土　9:00～13:30\n　　　　14:30～19:00",
      "PCR": "○",
      "ANTIBODY": "○",
      "LOCATION": "35.781214972315546, 139.65364616883508"
    },
    {
      "NAME": "ウエルシア薬局板橋志村店",
      "DISTRICT": "板橋区",
      "ADDRESS": "東京都板橋区志村１－３－１",
      "HOURS": "月～土　9:00～20:00",
      "PCR": "○",
      "ANTIBODY": "○",
      "LOCATION": "35.77112636911084, 139.69836741301083"
    },
    {
      "NAME": "ウエルシア薬局板橋浮間舟渡店",
      "DISTRICT": "板橋区",
      "ADDRESS": "東京都板橋区舟渡１－１３－２３レジデンスＢＳ",
      "HOURS": "月～土　9:00～14:00\n              15:00～19:00\n　日　　9:00~14:00\n              15:00～18:00",
      "PCR": "○",
      "ANTIBODY": "○",
      "LOCATION": "35.79183744439735, 139.69071558232983"
    },
    {
      "NAME": "ウエルシア薬局板橋赤塚店",
      "DISTRICT": "板橋区",
      "ADDRESS": "東京都板橋区赤塚６－１－２６",
      "HOURS": "月～日　9:00～20:00",
      "PCR": "○",
      "ANTIBODY": "○",
      "LOCATION": "35.773491631640475, 139.64625672650524"
    },
    {
      "NAME": "ウエルシア薬局板橋徳丸店",
      "DISTRICT": "板橋区",
      "ADDRESS": "東京都板橋区徳丸６－３－２",
      "HOURS": "月～土　9:00～13:30\n　　　　14:30～19:00",
      "PCR": "○",
      "ANTIBODY": "○",
      "LOCATION": "35.77613455484114, 139.66249862650537"
    },
    {
      "NAME": "ウエルシア薬局板橋下板橋店",
      "DISTRICT": "板橋区",
      "ADDRESS": "東京都板橋区板橋１‐６‐５ヒルサイドビル",
      "HOURS": "月～土　9:00～14:00\n　　　　15:00～19:00",
      "PCR": "○",
      "ANTIBODY": "○",
      "LOCATION": "35.74713677699418, 139.71572871301026"
    },
    {
      "NAME": "ウエルシア薬局練馬下石神井店",
      "DISTRICT": "練馬区",
      "ADDRESS": "東京都練馬区下石神井５－１６－１３",
      "HOURS": "月～土　9:00 ～ 14:00\n　　　　15:00 ～ 19:00",
      "PCR": "○",
      "ANTIBODY": "○",
      "LOCATION": "35.73018157804301, 139.59986366883402"
    },
    {
      "NAME": "ウエルシア薬局練馬向山店",
      "DISTRICT": "練馬区",
      "ADDRESS": "東京都練馬区向山４－３４－３",
      "HOURS": "月～土　9:00 ～ 13:30\n　　　　14:30 ～ 20:00",
      "PCR": "○",
      "ANTIBODY": "○",
      "LOCATION": "35.7439105544387, 139.6354706418454"
    },
    {
      "NAME": "ウエルシア薬局練馬高松店",
      "DISTRICT": "練馬区",
      "ADDRESS": "東京都練馬区高松６－９－４",
      "HOURS": "月～土　9:00 ～ 20:00\n日、祝　10:00 ～ 14:00\n　　　　15:00 ～ 20:00",
      "PCR": "○",
      "ANTIBODY": "○",
      "LOCATION": "35.75729070929818, 139.61738584184565"
    },
    {
      "NAME": "ハックドラッグピーコック高野台薬局",
      "DISTRICT": "練馬区",
      "ADDRESS": "東京都練馬区高野台１－７－１７　ピーコック高野台１Ｆ",
      "HOURS": "月～土　9:00 ～ 19:00",
      "PCR": "○",
      "ANTIBODY": "○",
      "LOCATION": "35.74168154978531, 139.61686733048217"
    },
    {
      "NAME": "ウエルシア薬局練馬桜台店",
      "DISTRICT": "練馬区",
      "ADDRESS": "東京都練馬区桜台1-28-8",
      "HOURS": "月～土　9:00～13:30\n　　　　14:30～19:00",
      "PCR": "○",
      "ANTIBODY": "○",
      "LOCATION": "35.74109884472998, 139.6678585688342"
    },
    {
      "NAME": "ウエルシア薬局練馬三原台店",
      "DISTRICT": "練馬区",
      "ADDRESS": "東京都練馬区三原台３－８－３メゾンド下屋敷",
      "HOURS": "月～土　10:00 ～ 14:00\n　　　　15:00 ～ 19:00",
      "PCR": "○",
      "ANTIBODY": "○",
      "LOCATION": "35.75096405178237, 139.59847288417515"
    },
    {
      "NAME": "ウエルシア薬局練馬上石神井店",
      "DISTRICT": "練馬区",
      "ADDRESS": "東京都練馬区上石神井１－５－１０コンフォートビル",
      "HOURS": "月～日　10:00 ～ 14:00\n　　　　15:00 ～ 19:00",
      "PCR": "○",
      "ANTIBODY": "○",
      "LOCATION": "35.72569421874559, 139.5916829149935"
    },
    {
      "NAME": "ウエルシア薬局練馬石神井店",
      "DISTRICT": "練馬区",
      "ADDRESS": "東京都練馬区石神井町６－１５－８",
      "HOURS": "月～土　9:00 ～ 20:00",
      "PCR": "○",
      "ANTIBODY": "○",
      "LOCATION": "35.74321222409684, 139.60155599766938"
    },
    {
      "NAME": "ウエルシア薬局練馬早宮店",
      "DISTRICT": "練馬区",
      "ADDRESS": "東京都練馬区早宮４－３７－２",
      "HOURS": "月～土　9:00～20:00",
      "PCR": "○",
      "ANTIBODY": "○",
      "LOCATION": ""
    },
    {
      "NAME": "ウエルシア薬局練馬谷原店",
      "DISTRICT": "練馬区",
      "ADDRESS": "東京都練馬区谷原5-4-2",
      "HOURS": "月～土　10:00 ～ 13:00\n　　　　14:00 ～ 19:00",
      "PCR": "○",
      "ANTIBODY": "○",
      "LOCATION": "35.7477656376512, 139.6492729995159"
    },
    {
      "NAME": "ウエルシア薬局練馬東大泉店",
      "DISTRICT": "練馬区",
      "ADDRESS": "東京都練馬区東大泉６－４９－２グランフォンテ大泉学園",
      "HOURS": "月～水、金　9:00 ～ 19:00\n木　　　　　9:00 ～ 14:00\n　　　　　　15:00 ～ 19:00\n土　　　　　9:00 ～14:00\n　　　　　　15:00 ～ 17:00",
      "PCR": "○",
      "ANTIBODY": "○",
      "LOCATION": "35.74843573611153, 139.58309003999904"
    },
    {
      "NAME": "ウエルシア薬局練馬南大泉店",
      "DISTRICT": "練馬区",
      "ADDRESS": "東京都練馬区南大泉５－２０－２８",
      "HOURS": "月～金　9:00 ～ 19:00\n土　　　9:00 ～ 13:00",
      "PCR": "○",
      "ANTIBODY": "○",
      "LOCATION": "35.74957996273017, 139.5744014130104"
    },
    {
      "NAME": "ウエルシア薬局練馬平和台店",
      "DISTRICT": "練馬区",
      "ADDRESS": "東京都練馬区平和台4丁目26-8　ザ・グランディール平和台Ⅰ　1階",
      "HOURS": "月～土　9:00～13:00\n　　　　14:00～19:00",
      "PCR": "○",
      "ANTIBODY": "○",
      "LOCATION": "35.75853630657196, 139.65421666883444"
    },
    {
      "NAME": "ウエルシア薬局豊玉目白通り店",
      "DISTRICT": "練馬区",
      "ADDRESS": "東京都練馬区豊玉北５－２４－２",
      "HOURS": "月～日　9:00～20:00\n無休",
      "PCR": "○",
      "ANTIBODY": "○",
      "LOCATION": "35.735336483941495, 139.65467052650442"
    },
    {
      "NAME": "ウエルシア薬局練馬豊玉店",
      "DISTRICT": "練馬区",
      "ADDRESS": "東京都練馬区豊玉北６－１－２　ディアマークスキャピタルタワー",
      "HOURS": "月～日　9:00～13:30\n　　　　14:30～19:00\n祝日休み",
      "PCR": "○",
      "ANTIBODY": "○",
      "LOCATION": "35.73656263718989, 139.65228505533963"
    },
    {
      "NAME": "ウエルシア薬局足立加賀店",
      "DISTRICT": "足立区",
      "ADDRESS": "東京都足立区加賀２－１０－１",
      "HOURS": "月～土　9:00～20:00",
      "PCR": "○",
      "ANTIBODY": "○",
      "LOCATION": "35.78950804169676, 139.75745676883537"
    },
    {
      "NAME": "ウエルシア薬局足立加平店",
      "DISTRICT": "足立区",
      "ADDRESS": "東京都足立区加平３－４－１６",
      "HOURS": " 月～土　9:00～20:00\n 日祝       9:00～13:00 14:00～17:00",
      "PCR": "○",
      "ANTIBODY": "○",
      "LOCATION": "35.778805862196435, 139.82866912650545"
    },
    {
      "NAME": "ウエルシア薬局足立弘道店",
      "DISTRICT": "足立区",
      "ADDRESS": "東京都足立区弘道２－１８－７",
      "HOURS": "月～土　10:00～14:00 15:00～19:00",
      "PCR": "○",
      "ANTIBODY": "○",
      "LOCATION": "35.76975300243201, 139.8175554706813"
    },
    {
      "NAME": "ウエルシア薬局足立江北店",
      "DISTRICT": "足立区",
      "ADDRESS": "東京都足立区江北１－７－１５",
      "HOURS": "月～日祝　9:00～20:00\n無休",
      "PCR": "○",
      "ANTIBODY": "○",
      "LOCATION": "35.76881253095615, 139.7670334265052"
    },
    {
      "NAME": "ウエルシア薬局足立新田店",
      "DISTRICT": "足立区",
      "ADDRESS": "東京都足立区新田２－５－１",
      "HOURS": "月～土　9:00～13:00 14:00～19:00",
      "PCR": "○",
      "ANTIBODY": "○",
      "LOCATION": "35.77190548367203, 139.74059648232944"
    },
    {
      "NAME": "ウエルシア薬局足立西新井店",
      "DISTRICT": "足立区",
      "ADDRESS": "東京都足立区西新井４－３２－１４",
      "HOURS": "\n月～土　9:00～19:00\n日　       9:00～13:00",
      "PCR": "○",
      "ANTIBODY": "○",
      "LOCATION": "35.788582022562196, 139.77889185534082"
    },
    {
      "NAME": "ウエルシア薬局足立青井店",
      "DISTRICT": "足立区",
      "ADDRESS": "東京都足立区青井２－２０－１４",
      "HOURS": "月～土　9:00～19:00\n12/30　9:00~17:00",
      "PCR": "○",
      "ANTIBODY": "○",
      "LOCATION": "35.77213753810371, 139.81613146883487"
    },
    {
      "NAME": "ウエルシア薬局足立竹の塚１丁目店",
      "DISTRICT": "足立区",
      "ADDRESS": "東京都足立区竹ノ塚１－１３－１０",
      "HOURS": "月～土　10:00～20:00",
      "PCR": "○",
      "ANTIBODY": "○",
      "LOCATION": "35.79112253245974, 139.7924726265058"
    },
    {
      "NAME": "ウエルシア薬局足立竹の塚店",
      "DISTRICT": "足立区",
      "ADDRESS": "東京都足立区竹ノ塚５－２４－１１",
      "HOURS": "月～土　9:00～19:30",
      "PCR": "○",
      "ANTIBODY": "○",
      "LOCATION": "35.796759425017875, 139.7948415400004"
    },
    {
      "NAME": "ウエルシア薬局足立島根店",
      "DISTRICT": "足立区",
      "ADDRESS": "東京都足立区島根３－２０－１７",
      "HOURS": "月～土　9:00～20:00",
      "PCR": "○",
      "ANTIBODY": "○",
      "LOCATION": "35.78101497284115, 139.7969336976702"
    },
    {
      "NAME": "ウエルシア薬局足立南花畑店",
      "DISTRICT": "足立区",
      "ADDRESS": "東京都足立区南花畑２－４５－２",
      "HOURS": "月～土　9:00～20:00\n日祝       10:00～14:00 \n              15:00～19:00",
      "PCR": "○",
      "ANTIBODY": "○",
      "LOCATION": "35.793882341486096, 139.8174069995168"
    },
    {
      "NAME": "ウエルシア薬局葛飾奥戸店",
      "DISTRICT": "葛飾区",
      "ADDRESS": "東京都葛飾区奥戸５－５－１",
      "HOURS": "月～土　9:00～19:00\n日　       9:00～13:00",
      "PCR": "○",
      "ANTIBODY": "○",
      "LOCATION": "35.73359429738474, 139.8650220399987"
    },
    {
      "NAME": "ウエルシア薬局葛飾亀有店",
      "DISTRICT": "葛飾区",
      "ADDRESS": "東京都葛飾区亀有２－１６－１",
      "HOURS": "\n月～土　9:00～20:00\n日　       9:00～19:00",
      "PCR": "○",
      "ANTIBODY": "○",
      "LOCATION": "35.75900690554196, 139.84805182650487"
    },
    {
      "NAME": "ウエルシア薬局亀有駅前店",
      "DISTRICT": "葛飾区",
      "ADDRESS": "東京都葛飾区亀有三丁目３１番４号　１階",
      "HOURS": "月～土　10:00～14:00 15:00～19:00",
      "PCR": "○",
      "ANTIBODY": "○",
      "LOCATION": "35.76538108043118, 139.8487415418458"
    },
    {
      "NAME": "ウエルシア薬局葛飾水元店",
      "DISTRICT": "葛飾区",
      "ADDRESS": "東京都葛飾区水元４－１０－２３",
      "HOURS": "月～日祝　9:00～20:00",
      "PCR": "○",
      "ANTIBODY": "○",
      "LOCATION": "35.78621834596295, 139.8619595553408"
    },
    {
      "NAME": "ウエルシア薬局葛飾東立石店",
      "DISTRICT": "葛飾区",
      "ADDRESS": "東京都葛飾区東立石一丁目12番9号",
      "HOURS": "月～土　10:00～14:00 15:00～19:00",
      "PCR": "○",
      "ANTIBODY": "○",
      "LOCATION": "35.73004133114185, 139.8480407265043"
    },
    {
      "NAME": "ウエルシア薬局葛飾立石店",
      "DISTRICT": "葛飾区",
      "ADDRESS": "東京都葛飾区立石５－７－１９",
      "HOURS": "月～土　9:30～13:30 14:30～18:30",
      "PCR": "○",
      "ANTIBODY": "○",
      "LOCATION": "35.74206011823615, 139.84363963999903"
    },
    {
      "NAME": "ウエルシア薬局江戸川一之江店",
      "DISTRICT": "江戸川区",
      "ADDRESS": "東京都江戸川区一之江７－７３－５",
      "HOURS": "月～金　9:00～20:00\n土　　　9:00～20:00\n日祝　   10:00～19:00",
      "PCR": "○",
      "ANTIBODY": "○",
      "LOCATION": "35.68550876626869, 139.87917077067945"
    },
    {
      "NAME": "ウエルシア薬局江戸川鹿骨店",
      "DISTRICT": "江戸川区",
      "ADDRESS": "東京都江戸川区鹿骨４－２－９",
      "HOURS": "月～土　10:00～20:00",
      "PCR": "○",
      "ANTIBODY": "○",
      "LOCATION": "35.712374384798586, 139.8889512553391"
    },
    {
      "NAME": "ウエルシア薬局江戸川篠崎店",
      "DISTRICT": "江戸川区",
      "ADDRESS": "東京都江戸川区篠崎町２－１７１",
      "HOURS": "月～土　10:00～14:00 15:00～19:00",
      "PCR": "○",
      "ANTIBODY": "○",
      "LOCATION": "35.7069669372297, 139.9071495020266"
    },
    {
      "NAME": "ウエルシア薬局江戸川松本店",
      "DISTRICT": "江戸川区",
      "ADDRESS": "東京都江戸川区松本１－１６－２１",
      "HOURS": "月～土　9:00～19:00",
      "PCR": "○",
      "ANTIBODY": "○",
      "LOCATION": "35.715323145840514, 139.87605013999828"
    },
    {
      "NAME": "ウエルシア薬局江戸川西葛西店",
      "DISTRICT": "江戸川区",
      "ADDRESS": "東京都江戸川区西葛西５－２－１０牧山ビル",
      "HOURS": "月～土　9:00～13:00 14:00～18:00",
      "PCR": "○",
      "ANTIBODY": "○",
      "LOCATION": "35.666200308445134, 139.85974609766762"
    },
    {
      "NAME": "ウエルシア江戸川葛西薬局",
      "DISTRICT": "江戸川区",
      "ADDRESS": "東京都江戸川区船掘７－１０－８",
      "HOURS": "月～土　9:00～18:00",
      "PCR": "○",
      "ANTIBODY": "○",
      "LOCATION": "35.677360268867794, 139.86929358601992"
    },
    {
      "NAME": "ウエルシア薬局江戸川中葛西店",
      "DISTRICT": "江戸川区",
      "ADDRESS": "東京都江戸川区中葛西６－８－１１",
      "HOURS": "月～金　9:00～20:00\n土日祝　9:00～19:00",
      "PCR": "○",
      "ANTIBODY": "○",
      "LOCATION": "35.66015732164115, 139.866154055338"
    },
    {
      "NAME": "ウエルシア薬局江戸川東瑞江店",
      "DISTRICT": "江戸川区",
      "ADDRESS": "東京都江戸川区東瑞江１－１９－２",
      "HOURS": "月～土　10:00～14:00 15:00～19:00",
      "PCR": "○",
      "ANTIBODY": "○",
      "LOCATION": "35.689874859899376, 139.8983416706794"
    },
    {
      "NAME": "ウエルシア薬局江戸川瑞江駅前店",
      "DISTRICT": "江戸川区",
      "ADDRESS": "東京都江戸川区南篠崎町３－１－３",
      "HOURS": "月～土　9:00～19:00\n日祝　    9:00～18:00",
      "PCR": "○",
      "ANTIBODY": "○",
      "LOCATION": "35.69382262854846, 139.89907779766818"
    },
    {
      "NAME": "ウエルシア薬局江戸川本一色店",
      "DISTRICT": "江戸川区",
      "ADDRESS": "東京都江戸川区本一色３－７－２",
      "HOURS": "月～土　10:00～14:00 15:00～20:00",
      "PCR": "○",
      "ANTIBODY": "○",
      "LOCATION": "35.72212492748615, 139.8681099265041"
    },
    {
      "NAME": "ウエルシア薬局八王子みなみ野店",
      "DISTRICT": "八王子市",
      "ADDRESS": "東京都八王子市みなみ野５‐１５番５号",
      "HOURS": "月～土　09:00～20:00\n日祝　　09:00～19:00",
      "PCR": "○",
      "ANTIBODY": "○",
      "LOCATION": "35.62935046844061, 139.32080172650186"
    },
    {
      "NAME": "ウエルシア薬局八王子七国店",
      "DISTRICT": "八王子市",
      "ADDRESS": "東京都八王子市七国五丁目２８番",
      "HOURS": "月～土　09:00～20:00",
      "PCR": "○",
      "ANTIBODY": "○",
      "LOCATION": "35.619868602903665, 139.32155503814988"
    },
    {
      "NAME": "ウエルシア薬局八王子諏訪店",
      "DISTRICT": "八王子市",
      "ADDRESS": "東京都八王子市諏訪町４９９",
      "HOURS": "月～土　10:00～20:00",
      "PCR": "○",
      "ANTIBODY": "○",
      "LOCATION": "35.68098410212941, 139.29523731300878"
    },
    {
      "NAME": "ウエルシア薬局八王子川口店",
      "DISTRICT": "八王子市",
      "ADDRESS": "東京都八王子市川口町１７４５－３",
      "HOURS": "月～土　09:00～20:00\n日祝　　10:00～14:00\n　　　　15:00～20:00",
      "PCR": "○",
      "ANTIBODY": "○",
      "LOCATION": "35.68709539108356, 139.29553818232742"
    },
    {
      "NAME": "ウエルシア薬局八王子東浅川店",
      "DISTRICT": "八王子市",
      "ADDRESS": "東京都八王子市東浅川町５５７－４",
      "HOURS": "毎日　09:00～20:00",
      "PCR": "○",
      "ANTIBODY": "○",
      "LOCATION": "35.646438856014115, 139.29664118417284"
    },
    {
      "NAME": "ウエルシア薬局八王子東中野店",
      "DISTRICT": "八王子市",
      "ADDRESS": "東京都八王子市東中野２７９－２",
      "HOURS": "月～土\n10:00～13:00\n14:00～20:00",
      "PCR": "○",
      "ANTIBODY": "○",
      "LOCATION": "35.642651345922694, 139.410433068832"
    },
    {
      "NAME": "ウエルシア薬局八王子駅北口店",
      "DISTRICT": "八王子市",
      "ADDRESS": "東京都八王子市東町７－６　１Ｆ",
      "HOURS": "月～土　10:00～20:00",
      "PCR": "○",
      "ANTIBODY": "○",
      "LOCATION": "35.65835537741417, 139.33969645533793"
    },
    {
      "NAME": "ウエルシア薬局楢原コピオ店",
      "DISTRICT": "八王子市",
      "ADDRESS": "東京都八王子市楢原町１８１８－１５　コピオ楢原内",
      "HOURS": "月～土　10:00～20:00",
      "PCR": "○",
      "ANTIBODY": "○",
      "LOCATION": "35.68719141259232, 139.3056424034921"
    },
    {
      "NAME": "ウエルシア薬局八王子弐分方店",
      "DISTRICT": "八王子市",
      "ADDRESS": "東京都八王子市弐分方町４８１－４",
      "HOURS": "月～土　10:00～20:00",
      "PCR": "○",
      "ANTIBODY": "○",
      "LOCATION": "35.67284266254739, 139.28384073999737"
    },
    {
      "NAME": "ウエルシア薬局八王子椚田店",
      "DISTRICT": "八王子市",
      "ADDRESS": "東京都八王子市椚田町７２－１",
      "HOURS": "月～土　10:00～20:00",
      "PCR": "○",
      "ANTIBODY": "○",
      "LOCATION": "35.63286030099147, 139.3127157130077"
    },
    {
      "NAME": "ウエルシア薬局立川栄町店",
      "DISTRICT": "立川市",
      "ADDRESS": "東京都立川市栄町５丁目６２番地１",
      "HOURS": "月～土　10:00～20:00",
      "PCR": "○",
      "ANTIBODY": "○",
      "LOCATION": "35.716014210573825, 139.43011092650397"
    },
    {
      "NAME": "ウエルシア薬局立川若葉店",
      "DISTRICT": "立川市",
      "ADDRESS": "東京都立川市若葉町３－２１",
      "HOURS": "月～土　10:00～20:00",
      "PCR": "○",
      "ANTIBODY": "○",
      "LOCATION": "35.72118590468043, 139.43701516933552"
    },
    {
      "NAME": "ウエルシア薬局立川柏町店",
      "DISTRICT": "立川市",
      "ADDRESS": "東京都立川市柏町１－２０－２２",
      "HOURS": "月～土　09:00～20:00\n日祝　　10:00～14:00\n　　　　15:00～19:00",
      "PCR": "○",
      "ANTIBODY": "○",
      "LOCATION": "35.72092478288074, 139.4134351823282"
    },
    {
      "NAME": "ウエルシア薬局三鷹下連雀店",
      "DISTRICT": "三鷹市",
      "ADDRESS": "東京都三鷹市下連雀３－３０－８",
      "HOURS": "月～土　9:00 ～ 20:00",
      "PCR": "○",
      "ANTIBODY": "○",
      "LOCATION": "35.69787037445517, 139.56135405533882"
    },
    {
      "NAME": "ウエルシア薬局三鷹店",
      "DISTRICT": "三鷹市",
      "ADDRESS": "東京都三鷹市下連雀５－１－８",
      "HOURS": "月～金　9:00 ～ 19:00\n土　　　9:00 ～ 17:00",
      "PCR": "○",
      "ANTIBODY": "○",
      "LOCATION": "35.69787037445517, 139.56135405533882"
    },
    {
      "NAME": "ウエルシア薬局三鷹野崎店",
      "DISTRICT": "三鷹市",
      "ADDRESS": "東京都三鷹市野崎１－１６－５",
      "HOURS": "月～金　9:00 ～ 13:30\n　　　　14:30 ～ 19:00\n土　　　9:00 ～ 13:30\n　　　　14:30 ～ 18:00",
      "PCR": "○",
      "ANTIBODY": "○",
      "LOCATION": "35.68373139916833, 139.55144429766804"
    },
    {
      "NAME": "ウエルシア薬局青梅今寺店",
      "DISTRICT": "青海市",
      "ADDRESS": "東京都青梅市今寺５－１３－１",
      "HOURS": "月～土\n10:00～14:00\n15:00～19:00",
      "PCR": "○",
      "ANTIBODY": "○",
      "LOCATION": "35.7940822360555, 139.3029979688353"
    },
    {
      "NAME": "ウエルシア薬局青梅新町店",
      "DISTRICT": "青海市",
      "ADDRESS": "東京都青梅市新町３－６９－４",
      "HOURS": "月～土\n10:00～14:00\n15:00～20:00",
      "PCR": "○",
      "ANTIBODY": "○",
      "LOCATION": "35.7840181472423, 139.30220944184626"
    },
    {
      "NAME": "ウエルシア薬局ラーレ青梅新町店",
      "DISTRICT": "青海市",
      "ADDRESS": "東京都青梅市新町９－２０１６－１４",
      "HOURS": "月～土　10:00～20:00\n日祝　　10:00～14:00\n　　　　15:00～19:00",
      "PCR": "○",
      "ANTIBODY": "○",
      "LOCATION": "35.78167862556766, 139.3173486823296"
    },
    {
      "NAME": "ウエルシア薬局府中是政店",
      "DISTRICT": "府中市",
      "ADDRESS": "東京都府中市是政２－４－２",
      "HOURS": "毎日　　9:00 ～ 20:00",
      "PCR": "○",
      "ANTIBODY": "○",
      "LOCATION": "35.65866974561899, 139.49069818232647"
    },
    {
      "NAME": "ウエルシア薬局府中天神店",
      "DISTRICT": "府中市",
      "ADDRESS": "東京都府中市天神町３－１２－６",
      "HOURS": "月～土　9:00 ～ 20:00\n日、祝　10:00 ～ 13:00\n　　　　14:00 ～ 19:00",
      "PCR": "○",
      "ANTIBODY": "○",
      "LOCATION": "35.68473468235799, 139.48878789766815"
    },
    {
      "NAME": "ウエルシア薬局府中白糸台店",
      "DISTRICT": "府中市",
      "ADDRESS": "東京都府中市白糸台３丁目３７番地１２",
      "HOURS": "月～土　9:00 ～ 20:00\n日　　　9:00 ～ 13:00\n　　　　14:00 ～ 17:00",
      "PCR": "○",
      "ANTIBODY": "○",
      "LOCATION": "35.66729050389748, 139.51831627067878"
    },
    {
      "NAME": "ウエルシア薬局府中町二丁目店",
      "DISTRICT": "府中市",
      "ADDRESS": "東京都府中市府中町２丁目９－５",
      "HOURS": "月～水、金　9:00 ～ 20:00\n木　　　　　9:00 ～ 14:00\n　　　　　　15:00 ～ 20:00\n土　　　　　9:00 ～ 19:00",
      "PCR": "○",
      "ANTIBODY": "○",
      "LOCATION": "35.67360930157586, 139.48300239766778"
    },
    {
      "NAME": "ウエルシア薬局昭島朝日町店",
      "DISTRICT": "昭島市",
      "ADDRESS": "東京都昭島市朝日町２－３－１９",
      "HOURS": "月～土　09:00～20:00\n日　　　09:00～13:00\n　　　　14:00～18:00",
      "PCR": "○",
      "ANTIBODY": "○",
      "LOCATION": "35.709118008569114, 139.37111109766872"
    },
    {
      "NAME": "ウエルシア薬局つくし野駅前店",
      "DISTRICT": "町田市",
      "ADDRESS": "東京都町田市つくし野２－２５－３",
      "HOURS": "月～金　9:00 ～ 20:00\n土　　　9:00 ～ 18:00\n日　　　10:00 ～ 20:00",
      "PCR": "○",
      "ANTIBODY": "○",
      "LOCATION": "35.52725245355237, 139.48396443999397"
    },
    {
      "NAME": "ウエルシア薬局町田相原店",
      "DISTRICT": "町田市",
      "ADDRESS": "東京都町田市相原町３３３６番地１",
      "HOURS": "月～土　10:00 ～ 20:00\n日　　　10:00 ～ 13:00\n　　　　14:00 ～ 18:00",
      "PCR": "○",
      "ANTIBODY": "○",
      "LOCATION": "35.61066118469103, 139.32637506883128"
    },
    {
      "NAME": "ハックドラッグ成瀬ローゼン薬局",
      "DISTRICT": "町田市",
      "ADDRESS": "東京都町田市南成瀬１－３－５　そうてつローゼン成瀬店２Ｆ",
      "HOURS": "月～土　9:00 ～ 20:00\n日、祝　9:00 ～ 13:00\n　　　　14:00 ～ 17:00",
      "PCR": "○",
      "ANTIBODY": "○",
      "LOCATION": "35.536474005165736, 139.47234734766468"
    },
    {
      "NAME": "ウエルシア薬局町田本町田店",
      "DISTRICT": "町田市",
      "ADDRESS": "東京都町田市本町田３１７３－１",
      "HOURS": "月～土　10:00 ～ 13:00\n　　　　14:00 ～ 19:00",
      "PCR": "○",
      "ANTIBODY": "○",
      "LOCATION": "35.572347459859195, 139.44642805533599"
    },
    {
      "NAME": "ウエルシア薬局町田滝の沢店",
      "DISTRICT": "町田市",
      "ADDRESS": "東京都町田市木曽町１２０－１",
      "HOURS": "月～土　9:00 ～ 20:00\n日、祝　9:00 ～ 13:00\n　　　　14:00 ～ 20:00",
      "PCR": "○",
      "ANTIBODY": "○",
      "LOCATION": "35.55862105862253, 139.43266405533552"
    },
    {
      "NAME": "ウエルシア薬局町田境川店",
      "DISTRICT": "町田市",
      "ADDRESS": "東京都町田市木曽東２－１０－１",
      "HOURS": "月～土　10:00 ～ 20:00\n日、祝　10:00 ～ 13:00\n　　　　14:00 ～ 19:00",
      "PCR": "○",
      "ANTIBODY": "○",
      "LOCATION": "35.5588341269997, 139.423928224654"
    },
    {
      "NAME": "ウエルシア薬局小平学園西町店",
      "DISTRICT": "小平市",
      "ADDRESS": "東京都小平市学園西町三丁目２６番２２号",
      "HOURS": "月～日　9:00 ～ 19:00",
      "PCR": "○",
      "ANTIBODY": "○",
      "LOCATION": "35.72700558759438, 139.4761733688337"
    },
    {
      "NAME": "ウエルシア薬局小平小川東店",
      "DISTRICT": "小平市",
      "ADDRESS": "東京都小平市小川東町１－６－２０",
      "HOURS": "月～土　9:00 ～ 20:00",
      "PCR": "○",
      "ANTIBODY": "○",
      "LOCATION": ""
    },
    {
      "NAME": "ウエルシア薬局イオンフードスタイル小平店",
      "DISTRICT": "小平市",
      "ADDRESS": "東京都小平市小川東町２－１２－１",
      "HOURS": "月～土　9:00 ～ 20:00\n日　　　10:00 ～ 13:00\n　　　　14:00 ～ 18:00",
      "PCR": "○",
      "ANTIBODY": "○",
      "LOCATION": "35.733563815596185, 139.46477595533952"
    },
    {
      "NAME": "ウエルシア薬局小平上水本町店",
      "DISTRICT": "小平市",
      "ADDRESS": "東京都小平市上水本町三丁目5番10号",
      "HOURS": "月～土　9:00 ～ 20:00",
      "PCR": "○",
      "ANTIBODY": "○",
      "LOCATION": "35.72372340063178, 139.46862365072906"
    },
    {
      "NAME": "ウエルシア薬局日野栄町店",
      "DISTRICT": "日野市",
      "ADDRESS": "東京都日野市栄町四丁目２２番地の１",
      "HOURS": "月～土　10:00～20:00",
      "PCR": "○",
      "ANTIBODY": "○",
      "LOCATION": "35.684196967963594, 139.38654892650328"
    },
    {
      "NAME": "ウエルシア京王高幡SC調剤薬局",
      "DISTRICT": "日野市",
      "ADDRESS": "東京都日野市高幡128-5　京王高幡ショッピングセンター1階　　",
      "HOURS": "月～土　09:00～20:00",
      "PCR": "○",
      "ANTIBODY": "○",
      "LOCATION": ""
    },
    {
      "NAME": "ウエルシア薬局日野甲州街道店",
      "DISTRICT": "日野市",
      "ADDRESS": "東京都日野市大字日野1479番地の1",
      "HOURS": "月～土\n09:00～14:00\n15:00～19:00",
      "PCR": "○",
      "ANTIBODY": "○",
      "LOCATION": "35.6622895735082, 139.41303906755581"
    },
    {
      "NAME": "ウエルシア薬局日野仲宿店",
      "DISTRICT": "日野市",
      "ADDRESS": "東京都日野市日野本町２－１６－２８",
      "HOURS": "月火木\n09:30～13:30\n14:30～19:30\n金\n09:30～13:30\n14:30～18:30\n土\n09:30～14:30",
      "PCR": "○",
      "ANTIBODY": "○",
      "LOCATION": "35.67867670591012, 139.3990642823271"
    },
    {
      "NAME": "ウエルシア薬局日野万願寺店",
      "DISTRICT": "日野市",
      "ADDRESS": "東京都日野市万願寺２－２５－５",
      "HOURS": "月～土　09:00～20:00",
      "PCR": "○",
      "ANTIBODY": "○",
      "LOCATION": "35.6715070126982, 139.4203205688325"
    },
    {
      "NAME": "ウエルシア薬局日野落川店",
      "DISTRICT": "日野市",
      "ADDRESS": "東京都日野市落川　９９７番地１",
      "HOURS": "月～土　09:00～20:00\n日　　　09:00～14:00\n　　　　15:00～17:00",
      "PCR": "○",
      "ANTIBODY": "○",
      "LOCATION": "35.65685300678452, 139.43145508417305"
    },
    {
      "NAME": "ウエルシア薬局東村山久米川店",
      "DISTRICT": "東村山市",
      "ADDRESS": "東京都東村山市久米川町４－３－３９",
      "HOURS": "水、木　9:00～14:00\n　　　　15:00～20:00\n月、火、金、土　9:00 ～ 20:00",
      "PCR": "○",
      "ANTIBODY": "○",
      "LOCATION": "35.76068419577721, 139.47255282650497"
    },
    {
      "NAME": "ウエルシア薬局新秋津駅前店",
      "DISTRICT": "東村山市",
      "ADDRESS": "東京都東村山市新秋津町５－１３－９５",
      "HOURS": "月～土　9:00 ～ 20:00",
      "PCR": "○",
      "ANTIBODY": "○",
      "LOCATION": "35.77832569241292, 139.4943101399998"
    },
    {
      "NAME": "ウエルシア薬局東村山野口店",
      "DISTRICT": "東村山市",
      "ADDRESS": "東京都東村山市野口町１－２６－３７",
      "HOURS": "月～金　9:00 ～ 20:00\n土　　　10:00 ～ 20:00\n日、祝　10:00 ～ 13:00\n　　　　14:00 ～ 20:00",
      "PCR": "○",
      "ANTIBODY": "○",
      "LOCATION": "35.75812008199212, 139.4629141841754"
    },
    {
      "NAME": "ウエルシア薬局国分寺駅北口店",
      "DISTRICT": "国分寺市",
      "ADDRESS": "東京都国分寺市本町２丁目２番１号",
      "HOURS": "月～土　9:00 ～ 20:00\n日　　　9:00 ～ 13:30\n　　　　14:30 ～ 18:00",
      "PCR": "○",
      "ANTIBODY": "○",
      "LOCATION": "35.70096555774219, 139.4812711265036"
    },
    {
      "NAME": "ウエルシア薬局国立谷保店",
      "DISTRICT": "国立市",
      "ADDRESS": "東京都国立市谷保５２１３－１　津戸ビル１Ｆ",
      "HOURS": "月～金　9:00 ～ 19:00\n土　　　10:00 ～ 18:00",
      "PCR": "○",
      "ANTIBODY": "○",
      "LOCATION": "35.681170787041935, 139.44371778232724"
    },
    {
      "NAME": "ウエルシア薬局国立富士見台店",
      "DISTRICT": "国立市",
      "ADDRESS": "東京都国立市富士見台２－３０－２",
      "HOURS": "月～土　9:00 ～ 20:00\n日、祝　9:00 ～ 13:30\n　　　　14:30 ～ 18:00",
      "PCR": "○",
      "ANTIBODY": "○",
      "LOCATION": "35.68494794005465, 139.4437672265033"
    },
    {
      "NAME": "ウエルシア薬局東福生店",
      "DISTRICT": "福生市",
      "ADDRESS": "東京都福生市武蔵野台１－８－１０",
      "HOURS": "月～土\n10:00～14:00\n15:00～20:00",
      "PCR": "○",
      "ANTIBODY": "○",
      "LOCATION": "35.746021495479745, 139.33417141301015"
    },
    {
      "NAME": "ウエルシア薬局福生北田園",
      "DISTRICT": "福生市",
      "ADDRESS": "東京都福生市北田園２－１８－５",
      "HOURS": "月～土\n09:30～14:00\n15:00～19:30",
      "PCR": "○",
      "ANTIBODY": "○",
      "LOCATION": "35.73727820117758, 139.32141025533952"
    },
    {
      "NAME": "ウエルシア薬局東大和向原店",
      "DISTRICT": "東大和市",
      "ADDRESS": "東京都東大和市向原３－１－１",
      "HOURS": "月～土\n10:00～14:00\n15:00～20:00",
      "PCR": "○",
      "ANTIBODY": "○",
      "LOCATION": "35.742608665645896, 139.43763884184543"
    },
    {
      "NAME": "ウエルシア薬局東大和立野店",
      "DISTRICT": "東大和市",
      "ADDRESS": "東京都東大和市立野３－１１４９－２",
      "HOURS": "月～土　09:00～19:00\n日祝　　09:00～14:00\n　　　　15:00～19:00",
      "PCR": "○",
      "ANTIBODY": "○",
      "LOCATION": "35.74234812579833, 139.42384603999892"
    },
    {
      "NAME": "ウエルシア薬局清瀬中里店",
      "DISTRICT": "清瀬市",
      "ADDRESS": "東京都清瀬市中里３－８９５－１",
      "HOURS": "月～土　9:00 ～ 20:00",
      "PCR": "○",
      "ANTIBODY": "○",
      "LOCATION": "35.78359425171004, 139.52323496883514"
    },
    {
      "NAME": "ウエルシア薬局東久留米滝山店",
      "DISTRICT": "東久留米市",
      "ADDRESS": "東京都東久留米市滝山１－８－２０",
      "HOURS": "月～土　9:00 ～ 20:00",
      "PCR": "○",
      "ANTIBODY": "○",
      "LOCATION": "35.74868182813834, 139.51050572650465"
    },
    {
      "NAME": "ウエルシア薬局東久留米八幡町店",
      "DISTRICT": "東久留米市",
      "ADDRESS": "東京都東久留米市八幡町三丁目14番6号",
      "HOURS": "月～土　10:00 ～ 14:00\n　　　　15:00 ～ 19:00",
      "PCR": "○",
      "ANTIBODY": "○",
      "LOCATION": "35.7500575439571, 139.51268367995073"
    },
    {
      "NAME": "ウエルシア薬局東久留米本町店",
      "DISTRICT": "東久留米市",
      "ADDRESS": "東京都東久留米市本町１－４－３３",
      "HOURS": "月～金　9:00 ～ 20:00\n土　　　9:00 ～ 19:00\n祝　　　10:00 ～ 14:00\n　　　　15:00 ～ 20:00",
      "PCR": "○",
      "ANTIBODY": "○",
      "LOCATION": "35.759096674018494, 139.53252786883468"
    },
    {
      "NAME": "ウエルシア薬局ダイエー武蔵村山店",
      "DISTRICT": "武蔵村山市",
      "ADDRESS": "東京都武蔵村山市伊奈平３－３６－１",
      "HOURS": "月～土　09:00～19:00",
      "PCR": "○",
      "ANTIBODY": "○",
      "LOCATION": "35.73585973857368, 139.378888968834"
    },
    {
      "NAME": "ウエルシア薬局稲城若葉台アクロスプラザ店",
      "DISTRICT": "稲城市",
      "ADDRESS": "東京都稲城市若葉台１丁目５５番地",
      "HOURS": "月～金　10:00 ～ 13:00\n　　　　14:00 ～ 20:00\n土　　　10:00 ～ 14:00",
      "PCR": "○",
      "ANTIBODY": "○",
      "LOCATION": "35.624561199332376, 139.47474402650195"
    },
    {
      "NAME": "ウエルシア薬局南多摩駅前店",
      "DISTRICT": "稲城市",
      "ADDRESS": "東京都稲城市大丸１００７番地の２",
      "HOURS": "月～土　10:00 ～ 13:00\n　　　　14:00 ～ 20:00",
      "PCR": "○",
      "ANTIBODY": "○",
      "LOCATION": "35.64911879088629, 139.49075872650255"
    },
    {
      "NAME": "ウエルシア薬局稲城長沼駅店",
      "DISTRICT": "稲城市",
      "ADDRESS": "東京都稲城市東長沼516-12",
      "HOURS": "月～土　9:00 ～ 20:00",
      "PCR": "○",
      "ANTIBODY": "○",
      "LOCATION": "35.64467243053973, 139.50245221116162"
    },
    {
      "NAME": "ウエルシア薬局田無駅前店",
      "DISTRICT": "西東京市",
      "ADDRESS": "東京都西東京市田無町４－２－１１　指田ビル１Ｆ",
      "HOURS": "月～金　9:00 ～ 20:00\n土　　　9:00 ～ 19:00\n日、祝　9:00 ～ 14:00\n　　　　15:00 ～ 19:00",
      "PCR": "○",
      "ANTIBODY": "○",
      "LOCATION": "35.72823214040624, 139.53915543999867"
    },
    {
      "NAME": "クリニックフォア飯田橋",
      "DISTRICT": "千代田区",
      "ADDRESS": "東京都千代田区富士見２丁目７番１号飯田橋プラーノ１階",
      "HOURS": "月曜日～金曜日　10:00～20:00\n土日祝　　　　　9:00～18:00",
      "PCR": "○",
      "ANTIBODY": "",
      "LOCATION": "35.70082824187473, 139.74499969766845"
    },
    {
      "NAME": "クリニックフォア新橋",
      "DISTRICT": "港区",
      "ADDRESS": "東京都港区新橋１丁目４番５号ヒューリックＧ１０ビル９階",
      "HOURS": "月曜日～金曜日　9:30～21:00\n土日祝　　　　　9:00～18:00",
      "PCR": "○",
      "ANTIBODY": "",
      "LOCATION": "35.66809413674094, 139.7590222823269"
    },
    {
      "NAME": "医療法人社団エムズ　\nクリニックフォア田町",
      "DISTRICT": "港区",
      "ADDRESS": "東京都港区芝浦3−1−32なぎさテラス4階",
      "HOURS": "月曜日～金曜日　9:30～21:00\n土日祝　　　　　９時～18:00",
      "PCR": "○",
      "ANTIBODY": "",
      "LOCATION": "35.645111779600924, 139.74834693999682"
    },
    {
      "NAME": "医療法人社団エムズ　\nクリニックフォア有楽町",
      "DISTRICT": "千代田区",
      "ADDRESS": "東京都千代田区有楽町2丁目7-1 イトシア Ｂ1Ｆ",
      "HOURS": "月曜日～金曜日　10:00～20:30\n土日祝　　　　　休み",
      "PCR": "○",
      "ANTIBODY": "",
      "LOCATION": "35.67443372151022, 139.76324005533817"
    },
    {
      "NAME": "クリニックフォア大手町",
      "DISTRICT": "千代田区",
      "ADDRESS": "東京都千代田区大手町1丁目2番1号OtemachiOne地下1階",
      "HOURS": "月曜日～金曜日　9:00～20:30\n土日祝　　　　　休み",
      "PCR": "○",
      "ANTIBODY": "",
      "LOCATION": "35.68786776439276, 139.76221036375853"
    },
    {
      "NAME": "医療法人社団　大瑛会\nＴケアクリニック浜松町",
      "DISTRICT": "港区",
      "ADDRESS": " 東京都港区浜松町2ｰ13ｰ9　G1ビル2F",
      "HOURS": "月曜日～日曜日　\n9:00～14:30　\n15:30～19:00　無休　",
      "PCR": "○",
      "ANTIBODY": "○",
      "LOCATION": "35.6534541609914, 139.75557211300807"
    },
    {
      "NAME": "医療法人社団　祐真会　\nマチノマ大森内科クリニック\t",
      "DISTRICT": "大田区",
      "ADDRESS": "東京都大田区大森西3-1-38　マチノマ大森3F　",
      "HOURS": "月曜日～日曜日　9:00～18:00　無休",
      "PCR": "○",
      "ANTIBODY": "○",
      "LOCATION": "35.574677955288905, 139.72606406883042"
    },
    {
      "NAME": "MDT衛生検査所　赤坂受付センター",
      "DISTRICT": "港区",
      "ADDRESS": "東京都港区赤坂1-9-13　三会堂ビルB1F",
      "HOURS": "月曜日～金曜日09：00～20：00　土日祝日休",
      "PCR": "○",
      "ANTIBODY": "",
      "LOCATION": "35.57472563998984, 139.72598025348964"
    },
    {
      "NAME": "MDT衛生検査所　新宿受付センター",
      "DISTRICT": "新宿区",
      "ADDRESS": "東京都新宿区新宿4-2-20　MKビル1階",
      "HOURS": "月曜日～日曜日　9：00～20：00   無休　",
      "PCR": "○",
      "ANTIBODY": "",
      "LOCATION": "35.689240544209866, 139.7035034265033"
    },
    {
      "NAME": "MDT衛生検査所　浅草橋受付センター",
      "DISTRICT": "台東区",
      "ADDRESS": "東京都台東区浅草橋1-10-6　R.core　ASAKUSABASHI１F",
      "HOURS": "月曜日～日曜日　9：00～20：00　無休",
      "PCR": "○",
      "ANTIBODY": "",
      "LOCATION": "35.69729948841162, 139.78478803999798"
    },
    {
      "NAME": "MDT衛生検査所　池袋受付センター",
      "DISTRICT": "豊島区",
      "ADDRESS": "東京都豊島区西池袋3-25-8　相馬屋ビル1階",
      "HOURS": "月曜日～日曜日　9：00～20：00　無休",
      "PCR": "○",
      "ANTIBODY": "",
      "LOCATION": "35.73040095872566, 139.70740845349303"
    },
    {
      "NAME": "MDT衛生検査所　立川受付センター",
      "DISTRICT": "立川市",
      "ADDRESS": "東京都立川市柴崎町3-10-6　イチカワビル1階",
      "HOURS": "月曜日～日曜日　9：00～20：00　無休　",
      "PCR": "○",
      "ANTIBODY": "",
      "LOCATION": "35.69540112406403, 139.41314448232757"
    },
    {
      "NAME": "世田谷区　代田区民センター",
      "DISTRICT": "世田谷区",
      "ADDRESS": "東京都世田谷区代田6-34-13",
      "HOURS": "月曜日～日曜日　10:00～16:00\n第1・3月曜日、施設管理上必要な日：休み",
      "PCR": "○",
      "ANTIBODY": "",
      "LOCATION": "35.662980232250746, 139.6605939534916"
    },
    {
      "NAME": "世田谷区　宮坂区民センター",
      "DISTRICT": "世田谷区",
      "ADDRESS": "東京都世田谷区宮坂1丁目24番6号",
      "HOURS": "月曜日～日曜日（祝日含む）10:00～16:00",
      "PCR": "○",
      "ANTIBODY": "",
      "LOCATION": "35.64790490365106, 139.6447847130079"
    },
    {
      "NAME": "杉並区　桃井原っぱ公園",
      "DISTRICT": "杉並区",
      "ADDRESS": "東京都杉並区桃井3丁目8番1号",
      "HOURS": "月曜日～日曜日（祝日含む）11:00~17:00",
      "PCR": "○",
      "ANTIBODY": "",
      "LOCATION": "35.7136788597676, 139.60734779582234"
    },
    {
      "NAME": "ファイヤークリニック　\n銀座院",
      "DISTRICT": "中央区",
      "ADDRESS": "東京都中央区京橋3－3－11　VOTE京橋　４F",
      "HOURS": "月曜日～日曜日　10:00〜21:00",
      "PCR": "○",
      "ANTIBODY": "",
      "LOCATION": "35.67580001822731, 139.76833216883287"
    },
    {
      "NAME": "ファイヤークリニック　\n新宿院",
      "DISTRICT": "新宿区",
      "ADDRESS": "東京都新宿区新宿3-9-5 ゴールドビル8階",
      "HOURS": "月曜日～日曜日　10:00〜21:00",
      "PCR": "○",
      "ANTIBODY": "",
      "LOCATION": "35.691570634945826, 139.7067003534923"
    },
    {
      "NAME": "ファイヤークリニック　\n新宿唾液採取センター",
      "DISTRICT": "新宿区",
      "ADDRESS": "東京都新宿区新宿6-11-9　１F",
      "HOURS": "月曜日～日曜日　10:00～21:00",
      "PCR": "○",
      "ANTIBODY": "",
      "LOCATION": "35.69453301319788, 139.70831812650354"
    },
    {
      "NAME": "Checkup　Center　よつば",
      "DISTRICT": "新宿区",
      "ADDRESS": "東京都新宿区百人町2丁目5-8科研ビル1階C室",
      "HOURS": "月曜日～日曜日　9:00～22:00",
      "PCR": "○",
      "ANTIBODY": "",
      "LOCATION": "35.703584051446505, 139.70003219766855"
    },
    {
      "NAME": "ファイヤークリニック\n渋谷院",
      "DISTRICT": "渋谷区",
      "ADDRESS": "東京都渋谷区神南１丁目１２−１４\n星ビル 1階",
      "HOURS": "月曜日～日曜日　10:00〜21:00",
      "PCR": "○",
      "ANTIBODY": "",
      "LOCATION": "35.663022815384004, 139.70049772465651"
    },
    {
      "NAME": "PCR検査センター受付 立川店",
      "DISTRICT": "立川市",
      "ADDRESS": "東京都立川市曙町2-7-5 1階",
      "HOURS": "月曜日～日曜日　9:00～23:00",
      "PCR": "○",
      "ANTIBODY": "",
      "LOCATION": "35.69988399858009, 139.41374592650348"
    },
    {
      "NAME": "ヘルス・マネジメント・クリニック",
      "DISTRICT": "中央区",
      "ADDRESS": "東京都中央区八重洲2-11-2 城辺橋ビル1階",
      "HOURS": "月曜日～日曜日　9:00〜20:00",
      "PCR": "○",
      "ANTIBODY": "○",
      "LOCATION": "35.6760318023209, 139.76667331116218"
    },
    {
      "NAME": "医療法人社団べスリ会東京TMSクリニック\n大規模PCR検査センター（赤坂見附駅前）",
      "DISTRICT": "港区",
      "ADDRESS": "東京都港区赤坂3-2-6　赤坂光映ビル 1階・地下1階",
      "HOURS": "月曜日～日曜日(祝日含む)　10:00〜21:00 ",
      "PCR": "○",
      "ANTIBODY": "",
      "LOCATION": "35.648031637701614, 139.7092619706784"
    },
    {
      "NAME": "みどり薬局",
      "DISTRICT": "台東区",
      "ADDRESS": "東京都台東区蔵前4-21-9",
      "HOURS": "月曜日～金曜日　9:00～17:00\n祝日休み",
      "PCR": "",
      "ANTIBODY": "○",
      "LOCATION": "35.705008499291054, 139.79021631300932"
    },
    {
      "NAME": "薬局トモズ大手町カンファレンスセンター店",
      "DISTRICT": "千代田区",
      "ADDRESS": "東京都千代田区大手町一丁目3番2号　大手町ｶﾝﾌｧﾚﾝｽｾﾝﾀｰＢ1Ｆ",
      "HOURS": "月〜金　8：00～20：00\n土・日・祝　休業",
      "PCR": "○",
      "ANTIBODY": "○",
      "LOCATION": "35.68868273140285, 139.7636344418442"
    },
    {
      "NAME": "薬局トモズ神田和泉町店",
      "DISTRICT": "千代田区",
      "ADDRESS": "東京都千代田区神田和泉町1番地 住友商事神田和泉町ﾋﾞﾙ 1階",
      "HOURS": "月〜金 9：00～18：00\n土　　 9：00～13：00\n日・祝 休業",
      "PCR": "○",
      "ANTIBODY": "○",
      "LOCATION": "35.70023052139371, 139.77862089766847"
    },
    {
      "NAME": "薬局トモズ水天宮前店",
      "DISTRICT": "中央区",
      "ADDRESS": "東京都中央区日本橋人形町1-13-9 藤和日本橋人形町コープ1階",
      "HOURS": "月〜金9：00～19：00\n土　    9：00～14：00\n日・祝　休業",
      "PCR": "○",
      "ANTIBODY": "○",
      "LOCATION": "35.68382081197433, 139.78363472465693"
    },
    {
      "NAME": "薬局トモズ銀座三丁目店",
      "DISTRICT": "中央区",
      "ADDRESS": "東京都中央区銀座三丁目10-1　1階",
      "HOURS": "月〜金　　　　 9：00～19：00\n土・日・祝　休業",
      "PCR": "○",
      "ANTIBODY": "○",
      "LOCATION": "35.67182319616486, 139.76851949766777"
    },
    {
      "NAME": "薬局トモズ茅場町店",
      "DISTRICT": "中央区",
      "ADDRESS": "東京都中央区日本橋茅場町２－１０－５　住友生命茅場町ビル１Ｆ",
      "HOURS": "月〜金 10：00～19：00\n土・日・祝　休業",
      "PCR": "○",
      "ANTIBODY": "○",
      "LOCATION": "35.678651096313075, 139.7787684553383"
    },
    {
      "NAME": "薬局トモズ銀座八丁目店",
      "DISTRICT": "中央区",
      "ADDRESS": "東京都中央区銀座8-12-1　セイコー銀座ビル１階",
      "HOURS": "月〜金　　9：00～18：00\n土・日・祝　休業",
      "PCR": "○",
      "ANTIBODY": "○",
      "LOCATION": "35.66783693735884, 139.76317838232694"
    },
    {
      "NAME": "薬局トモズ築地店",
      "DISTRICT": "中央区",
      "ADDRESS": "東京都中央区築地1-12-12　ＳＩビル１階",
      "HOURS": "月〜金　9：30～19：00\n土・日・祝　休業",
      "PCR": "○",
      "ANTIBODY": "○",
      "LOCATION": "35.66835860373168, 139.77045095533802"
    },
    {
      "NAME": "薬局トモズ麻布十番店",
      "DISTRICT": "港区",
      "ADDRESS": "東京都港区麻布十番3-7-11ｼｬﾄｰﾃﾞｽﾎﾟﾜｰﾙ麻布101号",
      "HOURS": "月〜金　10：00～19：00\n土・日・祝　休業",
      "PCR": "○",
      "ANTIBODY": "○",
      "LOCATION": "35.653770253365295, 139.73482775533782"
    },
    {
      "NAME": "薬局トモズ高田馬場店",
      "DISTRICT": "新宿区",
      "ADDRESS": "東京都新宿区高田馬場3-12-2　高田馬場OCビル１F",
      "HOURS": "月〜金　9：00～19：30\n土       　9：00～14：30\n日・祝　休業",
      "PCR": "○",
      "ANTIBODY": "○",
      "LOCATION": "35.71355216123279, 139.70122889766876"
    },
    {
      "NAME": "薬局トモズ女子医大前店",
      "DISTRICT": "新宿区",
      "ADDRESS": "東京都新宿区若松町3-2",
      "HOURS": "月〜金　9：00～18：00\n土       　9：00～15：00\n第3土曜日　休業\n日・祝　休業",
      "PCR": "○",
      "ANTIBODY": "○",
      "LOCATION": "35.69875948585884, 139.7189884958221"
    },
    {
      "NAME": "薬局トモズ女子医大前２号店",
      "DISTRICT": "新宿区",
      "ADDRESS": "東京都新宿区若松町3-3 井関ﾋﾞﾙ",
      "HOURS": "月〜金　9：00～18：00\n土       　9：00～15：00\n第3土曜日　休業\n日・祝　休業",
      "PCR": "○",
      "ANTIBODY": "○",
      "LOCATION": "35.69893068833352, 139.71899508417397"
    },
    {
      "NAME": "ベイ薬局 本所店",
      "DISTRICT": "墨田区",
      "ADDRESS": "東京都墨田区本所4-14-5",
      "HOURS": "月･火・水・金　9：00～13：00／14：30～18：00\n土    　9：00～13：00\n木・日・祝 休業",
      "PCR": "○",
      "ANTIBODY": "○",
      "LOCATION": "35.703988750473464, 139.80598835718533"
    },
    {
      "NAME": "薬局トモズ両国店",
      "DISTRICT": "墨田区",
      "ADDRESS": "東京都墨田区横網1-10-12　高安ビル",
      "HOURS": "月～金　9：00～18：00\n土　       9：00～13：00\n日・祝　休業",
      "PCR": "○",
      "ANTIBODY": "○",
      "LOCATION": "35.69880067293019, 139.79521688232765"
    },
    {
      "NAME": "薬局トモズ 向島店",
      "DISTRICT": "墨田区",
      "ADDRESS": "東京都墨田区八広1-7-1",
      "HOURS": "月・火・水・金　9：00～19：00\n木　9：00～17：00\n土　10：00～14：00\n日・祝　休業",
      "PCR": "○",
      "ANTIBODY": "○",
      "LOCATION": "35.721520018692246, 139.82202178417464"
    },
    {
      "NAME": "薬局トモズ 押上店",
      "DISTRICT": "墨田区",
      "ADDRESS": "東京都墨田区押上1-11-4レガーレ伊勢元１階",
      "HOURS": "月・火・水・金　9：00～13：00／15：00～19：30\n土   　9：00～12：00\n木・日・祝 休業",
      "PCR": "○",
      "ANTIBODY": "○",
      "LOCATION": "35.71051600742725, 139.81423145349268"
    },
    {
      "NAME": "薬局トモズ有明ガーデン店",
      "DISTRICT": "江東区",
      "ADDRESS": "東京都江東区有明2-1-8-2階",
      "HOURS": "月〜金    　9：00～21：00\n土       　9：00～19：00\n日・祝　9：00～19：00",
      "PCR": "○",
      "ANTIBODY": "○",
      "LOCATION": "35.638485868948614, 139.79163916883178"
    },
    {
      "NAME": "ベイ薬局 亀戸三丁目店",
      "DISTRICT": "江東区",
      "ADDRESS": "東京都江東区亀戸3-50-4",
      "HOURS": "月〜金　9：00～18：00\n土       　9：00～13：00\n日・祝　休業\n第1・第3 土　休業",
      "PCR": "○",
      "ANTIBODY": "○",
      "LOCATION": "35.70467078550206, 139.8234156534925"
    },
    {
      "NAME": "ベイ薬局 扇橋店",
      "DISTRICT": "江東区",
      "ADDRESS": "東京都江東区扇橋2-17-3秋元ビル１階",
      "HOURS": "月・水・金　9：00～12：30／14：00～19：00\n火・土・日　9：00～12：00\n木・祝　休業",
      "PCR": "○",
      "ANTIBODY": "○",
      "LOCATION": "35.684344412137776, 139.81645562650326"
    },
    {
      "NAME": "薬局トモズ亀戸東口店",
      "DISTRICT": "江東区",
      "ADDRESS": "東京都江東区亀戸6-58-12　Y&Sビル",
      "HOURS": "月～土　9：30～19：30\n日・祝　休業",
      "PCR": "○",
      "ANTIBODY": "○",
      "LOCATION": "35.6971535277824, 139.82826596883325"
    },
    {
      "NAME": "薬局トモズ東大島店",
      "DISTRICT": "江東区",
      "ADDRESS": "東京都江東区大島７－39－１　ソフィア東大島１０５",
      "HOURS": "月〜金　9：00～18：00\n土　       9：00～13：00\n日・祝　休業",
      "PCR": "○",
      "ANTIBODY": "○",
      "LOCATION": "35.690982554308505, 139.84360648232746"
    },
    {
      "NAME": "薬局トモズ中延店",
      "DISTRICT": "品川区",
      "ADDRESS": "東京都品川区東中延2-7-16",
      "HOURS": "月・火・木・金　9：00～20：00\n水　9：00～19：00\n土　9：00～14：00\n日・祝　休業",
      "PCR": "○",
      "ANTIBODY": "○",
      "LOCATION": "35.60741787375184, 139.71242774184225"
    },
    {
      "NAME": "薬局トモズパークシティ武蔵小山ザモール店",
      "DISTRICT": "品川区",
      "ADDRESS": "東京都品川区小山3-15-1",
      "HOURS": " \n月〜金           10：00～19：00\n土・日・祝　10：00～18：00\n",
      "PCR": "○",
      "ANTIBODY": "○",
      "LOCATION": "35.620158730382514, 139.7041708976667"
    },
    {
      "NAME": "薬局トモズ五反田店",
      "DISTRICT": "品川区",
      "ADDRESS": "東京都品川区西五反田2-28-5",
      "HOURS": "月〜金9：30～19：30\n土 10：00～17：00\n日・祝　休業",
      "PCR": "○",
      "ANTIBODY": "○",
      "LOCATION": "35.624761098896215, 139.7209576130074"
    },
    {
      "NAME": "薬局トモズ洗足店",
      "DISTRICT": "目黒区",
      "ADDRESS": "東京都目黒区洗足2-7-15",
      "HOURS": " \n月〜金 9：00～20：00\n土　　 9：00～18：00\n日・祝　休業\n",
      "PCR": "○",
      "ANTIBODY": "○",
      "LOCATION": "35.61162302755414, 139.69373726883123"
    },
    {
      "NAME": "薬局トモズ　エトモ祐天寺店",
      "DISTRICT": "目黒区",
      "ADDRESS": "東京都目黒区祐天寺2-13-4",
      "HOURS": "月〜金　9：00～19：30\n土       　9：30～14：00\n日・祝　休業",
      "PCR": "○",
      "ANTIBODY": "○",
      "LOCATION": "35.63780724851946, 139.69102272650233"
    },
    {
      "NAME": "薬局トモズ長原店",
      "DISTRICT": "大田区",
      "ADDRESS": "東京都大田区上池台1-13-6　三葉ﾋﾞﾙ1階",
      "HOURS": "月・火・水・木　9：00～19：00\n土       　               9：00～17：00\n日・祝　休業",
      "PCR": "○",
      "ANTIBODY": "○",
      "LOCATION": "35.602709970339625, 139.6971000265014"
    },
    {
      "NAME": "薬局トモズ蒲田店",
      "DISTRICT": "大田区",
      "ADDRESS": "東京都大田区西蒲田七丁目66番4号　1階",
      "HOURS": "月〜金　9：00～19：00\n土　　　9：00～13：00\n日・祝　休業",
      "PCR": "○",
      "ANTIBODY": "○",
      "LOCATION": "35.56246612377358, 139.7144529111597"
    },
    {
      "NAME": "薬局トモズ野沢店",
      "DISTRICT": "世田谷区",
      "ADDRESS": "東京都世田谷区野沢二丁目5番20号",
      "HOURS": "月・火・水・金　9：00～19：00\n木・土　               9：00～12：00\n日・祝　休業",
      "PCR": "○",
      "ANTIBODY": "○",
      "LOCATION": "35.632603021525696, 139.67110825533726"
    },
    {
      "NAME": "薬局トモズ上野毛店",
      "DISTRICT": "世田谷区",
      "ADDRESS": "東京都世田谷区中町2-23-10  ",
      "HOURS": "月〜金　       10：00～18：00\n土・日・祝　休業",
      "PCR": "○",
      "ANTIBODY": "○",
      "LOCATION": "35.613909478315, 139.64244613999603"
    },
    {
      "NAME": "薬局トモズ代沢店",
      "DISTRICT": "世田谷区",
      "ADDRESS": "東京都世田谷区代沢5-8-14",
      "HOURS": "月〜金　9:00～18:30\n土　　　9:00～16:00\n日・祝  休業",
      "PCR": "○",
      "ANTIBODY": "○",
      "LOCATION": "35.65744146232874, 139.66792148417306"
    },
    {
      "NAME": "薬局トモズ駒沢店",
      "DISTRICT": "世田谷区",
      "ADDRESS": "東京都世田谷区駒沢四丁目1番1号ノア駒沢B1階",
      "HOURS": "月・火・水・金　9：00～19：00\n土　　　               9：00～13：30\n水・日・祝　休業",
      "PCR": "○",
      "ANTIBODY": "○",
      "LOCATION": "35.625870679773875, 139.65544991116118"
    },
    {
      "NAME": "薬局トモズ駒沢駅前店",
      "DISTRICT": "世田谷区",
      "ADDRESS": "東京都世田谷区上馬4-4-5",
      "HOURS": "月〜土　　　　　9：30～20：00\n日・祝　               10：00～18 ：00",
      "PCR": "○",
      "ANTIBODY": "○",
      "LOCATION": "35.63360355988963, 139.66107638232617"
    },
    {
      "NAME": "薬局トモズ等々力南口店",
      "DISTRICT": "世田谷区 ",
      "ADDRESS": "東京都世田谷区等々力2-32-14",
      "HOURS": "月・火・水・金　9：00～19：30\n水　                      9：00～17：00\n土　                      9：00～14：00\n日・祝　休業",
      "PCR": "○",
      "ANTIBODY": "○",
      "LOCATION": "35.60832552107739, 139.6477318823256"
    },
    {
      "NAME": "薬局トモズ等々力北口店",
      "DISTRICT": "世田谷区",
      "ADDRESS": "東京都世田谷区等々力三丁目5番2号",
      "HOURS": "月・火・木・金　9：00～19：30\n水　                      9：00～18：00\n土　　                  9：00～14：00\n日・祝　休業",
      "PCR": "○",
      "ANTIBODY": "○",
      "LOCATION": "35.60877282034592, 139.6478013553367"
    },
    {
      "NAME": "薬局トモズ上馬店",
      "DISTRICT": "世田谷区",
      "ADDRESS": "東京都世田谷区上馬3-6-11 コンフォリア世田谷上馬 １F",
      "HOURS": "月〜金　9：30～19：00\n土　　　9：30～17：00\n日・祝　休業",
      "PCR": "○",
      "ANTIBODY": "○",
      "LOCATION": "35.63521611667886, 139.66454099766693"
    },
    {
      "NAME": "薬局トモズ成城南口店",
      "DISTRICT": "世田谷区",
      "ADDRESS": "東京都世田谷区成城２－４０－２成城駅前１Ｆ",
      "HOURS": "月・金        9：00～19：00\n火・水・木 9：00～19：30\n土                9：00～16：00\n日・祝　　 休業",
      "PCR": "○",
      "ANTIBODY": "○",
      "LOCATION": "35.63987175016939, 139.59904372650234"
    },
    {
      "NAME": "薬局トモズ下北沢店",
      "DISTRICT": "世田谷区",
      "ADDRESS": "東京都世田谷区代田6-1-28　白洋ビル１階",
      "HOURS": "月・火・木・金　10：00～19：00\n水・土　9：00～17：00\n日・祝　休業",
      "PCR": "○",
      "ANTIBODY": "○",
      "LOCATION": "35.66215298355827, 139.66571398232682"
    },
    {
      "NAME": "薬局トモズ幡ヶ谷店",
      "DISTRICT": "渋谷区",
      "ADDRESS": "東京都渋谷区西原2-31-4",
      "HOURS": "月～金　9：00～19：00\n土　　　9：00～17：00\n日・祝　休業",
      "PCR": "○",
      "ANTIBODY": "○",
      "LOCATION": "35.67623260917368, 139.6771460995142"
    },
    {
      "NAME": "薬局トモズ渋谷並木橋店",
      "DISTRICT": "渋谷区",
      "ADDRESS": "東京都渋谷区渋谷三丁目10-13　渋谷Ｒｻﾝｹｲﾋﾞﾙ1階",
      "HOURS": "月～金　9：00～19：00\n土　　　9：00～14：00\n日・祝　休業",
      "PCR": "○",
      "ANTIBODY": "○",
      "LOCATION": "35.65696274147764, 139.70507392465623"
    },
    {
      "NAME": "薬局トモズ西荻窪店",
      "DISTRICT": "杉並区",
      "ADDRESS": "東京都杉並区西荻北三丁目19番1号",
      "HOURS": "月～日　 10：00～18：00\n祝　　 　休業",
      "PCR": "○",
      "ANTIBODY": "○",
      "LOCATION": "35.70444716161739, 139.60030210903167"
    },
    {
      "NAME": "薬局トモズ新高円寺店",
      "DISTRICT": "杉並区",
      "ADDRESS": "東京都杉並区梅里1-6-1ｶｰｻｸﾛﾔﾅｷﾞ1階",
      "HOURS": "月・火・木・金　9：00～19：30\n水　9：30～19：30\n土　9：00～17：30\n日・祝　休業",
      "PCR": "○",
      "ANTIBODY": "○",
      "LOCATION": "35.697362992445065, 139.64823968048123"
    },
    {
      "NAME": "薬局トモズ東高円寺店",
      "DISTRICT": "杉並区",
      "ADDRESS": "東京都杉並区高円寺南1-7-4",
      "HOURS": "月～金　9：00～19：30\n土       　9：00～18：00\n日・祝　休業",
      "PCR": "○",
      "ANTIBODY": "○",
      "LOCATION": "35.69851507652794, 139.65741006698673"
    },
    {
      "NAME": "薬局トモズ梅里店",
      "DISTRICT": "杉並区",
      "ADDRESS": "東京都杉並区梅里2-9-8",
      "HOURS": "月～金　9：00～19：00\n土       　9：00～13：00\n日・祝　休業",
      "PCR": "○",
      "ANTIBODY": "○",
      "LOCATION": "35.69775813950158, 139.64561268232757"
    },
    {
      "NAME": "薬局トモズ西永福店",
      "DISTRICT": "杉並区",
      "ADDRESS": "東京都杉並区永福4-19-3",
      "HOURS": "月～金　9：00～19：00\n土       　9：00～17：00\n日・祝　休業",
      "PCR": "○",
      "ANTIBODY": "○",
      "LOCATION": "35.680026593158075, 139.6372701688326"
    },
    {
      "NAME": "薬局トモズ上板橋北口店",
      "DISTRICT": "板橋区",
      "ADDRESS": "東京都板橋区常盤台4-31-3",
      "HOURS": "月～土　10：00～19：00\n日・祝　休業",
      "PCR": "○",
      "ANTIBODY": "○",
      "LOCATION": "35.7643386711023, 139.67722409766992"
    },
    {
      "NAME": "薬局トモズ大山店",
      "DISTRICT": "板橋区",
      "ADDRESS": "東京都板橋区大山町36-10くじゃくやビル1階",
      "HOURS": "月～金　9：00～19：00\n土       　9：00～18：00\n日       　10：00～14：00\n祝　       休業",
      "PCR": "○",
      "ANTIBODY": "○",
      "LOCATION": "35.74943536312558, 139.70012043999915"
    },
    {
      "NAME": "薬局トモズ上板橋南口店",
      "DISTRICT": "板橋区",
      "ADDRESS": "東京都板橋区上板橋1-25-10 JTプラザ上板橋１F",
      "HOURS": "月・火・水・金　9：00～18：30\n木・土               　9：00～17：00\n日・祝　       休業",
      "PCR": "○",
      "ANTIBODY": "○",
      "LOCATION": "35.7618738428823, 139.675015660795"
    },
    {
      "NAME": "薬局トモズ大谷口店",
      "DISTRICT": "板橋区",
      "ADDRESS": "東京都板橋区大谷口2-67-3",
      "HOURS": "月～日　9：00～18：00",
      "PCR": "○",
      "ANTIBODY": "○",
      "LOCATION": "35.74767880778631, 139.68617126883433"
    },
    {
      "NAME": "薬局トモズ 下赤塚店",
      "DISTRICT": "板橋区",
      "ADDRESS": "東京都板橋区赤塚2-2-18",
      "HOURS": "月～金　10：00～19：00\n土・日・祝　       休業",
      "PCR": "○",
      "ANTIBODY": "○",
      "LOCATION": "35.77125828365983, 139.64553958417562"
    },
    {
      "NAME": "薬局トモズ大泉学園店",
      "DISTRICT": "練馬区",
      "ADDRESS": "東京都練馬区東大泉1丁目31-1",
      "HOURS": "月・火・木・金　9：00～19：00\n水　　              　 9：00～17：00\n土　　              　 9：00～18：00\n日・祝　               休業",
      "PCR": "○",
      "ANTIBODY": "○",
      "LOCATION": "35.750359138917425, 139.58729626883442"
    },
    {
      "NAME": "薬局トモズ練馬高野台店",
      "DISTRICT": "練馬区",
      "ADDRESS": "東京都練馬区高野台1-7-33",
      "HOURS": "月～金　9：00～18：00\n土       　9：00～15：00\n日・祝　休業",
      "PCR": "○",
      "ANTIBODY": "○",
      "LOCATION": "35.7413693113169, 139.61586963999898"
    },
    {
      "NAME": "薬局トモズ石神井公園店",
      "DISTRICT": "練馬区",
      "ADDRESS": "東京都練馬区石神井町二丁目8番21号MJYビル1階",
      "HOURS": "月～金　9：00～19：00\n土       　9：00～18：00\n日・祝　休業",
      "PCR": "○",
      "ANTIBODY": "○",
      "LOCATION": "35.74438548242152, 139.6085820688343"
    },
    {
      "NAME": "薬局トモズCoconeri店",
      "DISTRICT": "練馬区",
      "ADDRESS": "東京都練馬区練馬1-17-1　2階",
      "HOURS": "月～土　9：00～18：00\n日       　9：00～12：30\n祝　       休業",
      "PCR": "○",
      "ANTIBODY": "○",
      "LOCATION": "35.73844859317328, 139.6533472688341"
    },
    {
      "NAME": "薬局トモズお花茶屋店",
      "DISTRICT": "葛飾区",
      "ADDRESS": "東京都葛飾区宝町二丁目34番16号　1階",
      "HOURS": "月・火・木・金　9：00～19：00\n水　       9：00～18：00\n土　       9：00～13：00\n日・祝　休業",
      "PCR": "○",
      "ANTIBODY": "○",
      "LOCATION": "35.747177701149866, 139.84029702650477"
    },
    {
      "NAME": "薬局トモズ葛飾青戸店",
      "DISTRICT": "葛飾区",
      "ADDRESS": "東京都葛飾区青戸8-3-10　リバティー亀有Ⅱ",
      "HOURS": "月・火・水・金　8：30～12：00／15：00～18：30\n土　8：30～12：00\n木・日・祝　休業",
      "PCR": "○",
      "ANTIBODY": "○",
      "LOCATION": "35.75664739575188, 139.849541138153"
    },
    {
      "NAME": "セルフ調剤薬局葛西店",
      "DISTRICT": "江戸川区",
      "ADDRESS": "東京都江戸川区東葛西6-15-16　ステラⅡスゴン1階",
      "HOURS": "月～金　9：00～18：00\n土　9：00～13：30\n日・祝　休業",
      "PCR": "○",
      "ANTIBODY": "○",
      "LOCATION": "35.662144482991685, 139.8767502071844"
    },
    {
      "NAME": "セルフ調剤薬局松江店",
      "DISTRICT": "江戸川区",
      "ADDRESS": "東京都江戸川区松江2-43-8",
      "HOURS": "月～土　9：00～19：30\n日　9：00～13：00\n祝　9：00～17：00",
      "PCR": "○",
      "ANTIBODY": "○",
      "LOCATION": "35.702920666176254, 139.8752068688333"
    },
    {
      "NAME": "エース調剤薬局",
      "DISTRICT": "江戸川区",
      "ADDRESS": "東京都江戸川区松江2-16-5　池田マンション1階",
      "HOURS": "月・火・水・金　9：00～13：00　15：00～19：00\n木・土　9：00～13：00\n日・祝　休業",
      "PCR": "○",
      "ANTIBODY": "○",
      "LOCATION": "35.70305530652426, 139.87270192802853"
    },
    {
      "NAME": "薬局トモズ八王子オクトーレ店",
      "DISTRICT": "八王子市",
      "ADDRESS": "東京都八王子市旭町9-1",
      "HOURS": "月～土　10：00～19：00\n日・祝　11：00～19：00",
      "PCR": "○",
      "ANTIBODY": "○",
      "LOCATION": "35.65751184478807, 139.33880462650262"
    },
    {
      "NAME": "薬局トモズ椚田店",
      "DISTRICT": "八王子市",
      "ADDRESS": "東京都八王子市椚田町557-25",
      "HOURS": "月・火・水・金　9：00～12：30　14：30～19：00\n木・土　9：00～12：30\n日・祝　休業",
      "PCR": "○",
      "ANTIBODY": "○",
      "LOCATION": "35.63617217399799, 139.3063243246557"
    },
    {
      "NAME": "薬局トモズ東小金井店",
      "DISTRICT": "小金井市",
      "ADDRESS": "東京都小金井市梶野町5-2-27",
      "HOURS": "月～金　9：00～19：00\n土　　　9：00～13：00\n日・祝　休業",
      "PCR": "○",
      "ANTIBODY": "○",
      "LOCATION": "35.70223585468802, 139.52371488232762"
    },
    {
      "NAME": "薬局トモズ花小金井店",
      "DISTRICT": "小平市",
      "ADDRESS": "東京都小平市花小金井4-32-9",
      "HOURS": "月～金　9：00～19：00\n土　　　9：00～13：00\n日・祝　休業",
      "PCR": "○",
      "ANTIBODY": "○",
      "LOCATION": "35.73550993662777, 139.51206262650433"
    },
    {
      "NAME": "薬局トモズ 久米川店",
      "DISTRICT": "東村山市",
      "ADDRESS": "東京都東村山市栄町1-5-6",
      "HOURS": "月～金　9：00～18：30\n土　　　9：00～14：00\n日・祝　休業",
      "PCR": "○",
      "ANTIBODY": "○",
      "LOCATION": "35.74979188201117, 139.4734465823289"
    },
    {
      "NAME": "薬局トモズ清瀬店",
      "DISTRICT": "清瀬市",
      "ADDRESS": "東京都清瀬市元町1-3-10",
      "HOURS": "月～金　9：00～19：00\n土　　　9：00～18：00\n日・祝　休業",
      "PCR": "○",
      "ANTIBODY": "○",
      "LOCATION": "35.77288047517095, 139.52093059767012"
    },
    {
      "NAME": "さくら薬局　荻窪店",
      "DISTRICT": "杉並区",
      "ADDRESS": "東京都杉並区天沼三丁目6番17号",
      "HOURS": "月～金　9時～13時、土日祝は応相談",
      "PCR": "",
      "ANTIBODY": "○",
      "LOCATION": "35.70787052926826, 139.61931976883335"
    },
    {
      "NAME": "にしたんクリニック銀座院",
      "DISTRICT": "中央区",
      "ADDRESS": "東京都中央区銀座7-9-11　モンブラン銀座ビル9階",
      "HOURS": "月～日　10：00～20：00\n祝日含む",
      "PCR": "○",
      "ANTIBODY": "",
      "LOCATION": "35.668736848246716, 139.76250478417333"
    },
    {
      "NAME": "にしたんクリニック新宿院",
      "DISTRICT": "新宿区",
      "ADDRESS": "東京都新宿区新宿3-17-10　HULIC&New SHINJUKU7階",
      "HOURS": "月～日　10：00～20：00\n祝日含む",
      "PCR": "○",
      "ANTIBODY": "",
      "LOCATION": "35.69223065655293, 139.70274789766827"
    },
    {
      "NAME": "にしたんクリニック渋谷院",
      "DISTRICT": "渋谷区",
      "ADDRESS": "東京都渋谷区宇田川町33-1　グランド東京渋谷ビル7階",
      "HOURS": "月～日　10：00～20：00\n祝日含む",
      "PCR": "○",
      "ANTIBODY": "",
      "LOCATION": "35.660838850130745, 139.69741022650277"
    },
    {
      "NAME": "ファーコス薬局 錦",
      "DISTRICT": "練馬区",
      "ADDRESS": "東京都練馬区錦1-20-17　サンハイツフジ101",
      "HOURS": "営業時間9:00〜18:00\n受付時間9:00〜17:00\n土曜　　9:00〜13:00\n土曜受付9:00〜12:00\n定休日:日曜、祝日",
      "PCR": "",
      "ANTIBODY": "○",
      "LOCATION": "35.75892696233259, 139.6703156418458"
    },
    {
      "NAME": "薬局ワンザファーマシー",
      "DISTRICT": "江東区",
      "ADDRESS": "東京都江東区有明3-6-11東京ファッションタウンビル東館2階",
      "HOURS": "月〜金　10:30～19:30\n土　　　10:30～16:00\n日祝　　休み ",
      "PCR": "",
      "ANTIBODY": "○",
      "LOCATION": "35.63097982586092, 139.79062192650213"
    },
    {
      "NAME": "ぽっぽ薬局",
      "DISTRICT": "荒川区",
      "ADDRESS": "東京都荒川区西日暮里２－２６－５",
      "HOURS": "月〜金　9:00~13:30 15:00~19:00\n土           9:00~13:30\n日           9:00~13:00\n水　　　休み",
      "PCR": "",
      "ANTIBODY": "○",
      "LOCATION": "35.730184359175745, 139.77097629951544"
    },
    {
      "NAME": "医療法人社団MYメディカル\nMYメディカルクリニック大手町",
      "DISTRICT": "千代田区",
      "ADDRESS": "東京都千代田区大手町2-3-1\n大手町プレイス地下2階",
      "HOURS": "月～金：9:00～12:30、13:30～16:30\n土日祝日休業",
      "PCR": "○",
      "ANTIBODY": "",
      "LOCATION": "35.68712020416589, 139.76746938417386"
    },
    {
      "NAME": "医療法人社団MYメディカル\nMYメディカルクリニック渋谷",
      "DISTRICT": "渋谷区",
      "ADDRESS": "東京都渋谷区宇田川町20-17 NMF渋谷公園通りビル4階",
      "HOURS": "月～金：9:00～12:30、13:30～16:30、\n               18:00～20:15\n土日    ：9:00～12:30、13:30～16:30\n祝日休業",
      "PCR": "○",
      "ANTIBODY": "",
      "LOCATION": "35.66119418544263, 139.70040963999716"
    },
    {
      "NAME": "ザ・ビッグ昭島店薬局",
      "DISTRICT": "昭島市",
      "ADDRESS": "東京都昭島市宮沢町500-1",
      "HOURS": "月曜日～日曜日　9:00〜22:00",
      "PCR": "",
      "ANTIBODY": "○",
      "LOCATION": "35.71638144255664, 139.37315357068"
    }
  ]
}